惯导
组播地址:224.100.100.10 端口:20842
设备地址:192.168.0.86

模组地址：192.168.0.23
结果地址，与惯导相同组播

$GPGLL,3910.8988,N,11708.5787,E,171019.76,A,A*6F
$GPVTG,299.7,T,299.7,M,000.0,N,000.0,K,A*23
$GPZDA,171019.76,14,08,2019,00,00*6F
$GPHDT,116.5,T*36
$GPROT,000.0,A*31
$SNATT,-000.22,000.04,-000.00,000.00,D*30
$GPGLL,3910.8988,N,11708.5787,E,171019.78,A,A*61
$GPVTG,299.7,T,299.7,M,000.0,N,000.0,K,A*23
$GPZDA,171019.78,14,08,2019,00,00*61
$GPHDT,116.5,T*36
$GPROT,000.0,A*31
$SNATT,-000.22,000.04,-000.00,000.00,D*30
$GPGLL,3910.8988,N,11708.5787,E,171019.80,A,A*66
$GPVTG,299.7,T,299.7,M,000.0,N,000.0,K,A*23
$GPZDA,171019.80,14,08,2019,00,00*66
$GPHDT,116.5,T*36
$GPROT,000.0,A*31
$SNATT,-000.22,000.04,-000.00,000.00,D*30
$GPGLL,3910.8988,N,11708.5787,E,171019.82,A,A*64
$GPVTG,299.7,T,299.7,M,000.0,N,000.0,K,A*23
$GPZDA,171019.82,14,08,2019,00,00*64
$GPHDT,116.5,T*36
$GPROT,000.0,A*31
$SNATT,-000.22,000.04,-000.00,000.00,D*30
$GPGLL,3910.8988,N,11708.5787,E,171019.84,A,A*62
$GPVTG,299.7,T,299.7,M,000.0,N,000.0,K,A*23
$GPZDA,171019.84,14,08,2019,00,00*62
$GPHDT,116.5,T*36
$GPROT,000.0,A*31
$SNATT,-000.22,000.04,-000.00,000.00,D*30
$GPGLL,3910.8988,N,11708.5787,E,171019.86,A,A*60
$GPVTG,299.7,T,299.7,M,000.0,N,000.0,K,A*23
$GPZDA,171019.86,14,08,2019,00,00*60
$GPHDT,116.5,T*36
$GPROT,000.0,A*31
$SNATT,-000.22,000.04,-000.00,000.00,D*30
$GPGLL,3910.8988,N,11708.5787,E,171019.88,A,A*6E
$GPVTG,299.7,T,299.7,M,000.0,N,000.0,K,A*23
$GPZDA,171019.88,14,08,2019,00,00*6E
$GPHDT,116.5,T*36
$GPROT,000.0,A*31
$SNATT,-000.22,000.04,-000.00,000.00,D*30
$GPGLL,3910.8988,N,11708.5787,E,171019.90,A,A*67
$GPVTG,299.7,T,299.7,M,000.0,N,000.0,K,A*23
$GPZDA,171019.90,14,08,2019,00,00*67
$GPHDT,116.5,T*36
$GPROT,000.0,A*31
$SNATT,-000.22,000.04,-000.00,000.00,D*30
$GPGLL,3910.8988,N,11708.5787,E,171019.92,A,A*65
$GPVTG,299.7,T,299.7,M,000.0,N,000.0,K,A*23
$GPZDA,171019.92,14,08,2019,00,00*65
$GPHDT,116.5,T*36
$GPROT,000.0,A*31
$SNATT,-000.22,000.04,-000.00,000.00,D*30
$GPGLL,3910.8988,N,11708.5787,E,171019.94,A,A*63
$GPVTG,299.7,T,299.7,M,000.0,N,000.0,K,A*23
$GPZDA,171019.94,14,08,2019,00,00*63
$GPHDT,116.5,T*36
$GPROT,000.0,A*31
$SNATT,-000.22,000.04,-000.00,000.00,D*30
$GPGLL,3910.8988,N,11708.5787,E,171019.96,A,A*61
$GPVTG,299.7,T,299.7,M,000.0,N,000.0,K,A*23
$GPZDA,171019.96,14,08,2019,00,00*61
$GPHDT,116.5,T*36
$GPROT,000.0,A*31
$SNATT,-000.22,000.04,-000.00,000.00,D*30
$GPGLL,3910.8988,N,11708.5787,E,171019.98,A,A*6F
$GPVTG,299.7,T,299.7,M,000.0,N,000.0,K,A*23
$GPZDA,171019.98,14,08,2019,00,00*6F
$GPHDT,116.5,T*36
$GPROT,000.0,A*31
$SNATT,-000.22,000.04,-000.00,000.00,D*30
$GPGLL,3910.8988,N,11708.5787,E,171020.00,A,A*64
$GPVTG,299.7,T,299.7,M,000.0,N,000.0,K,A*23
$GPZDA,171020.00,14,08,2019,00,00*64
$GPHDT,116.5,T*36
$GPROT,000.0,A*31
$SNATT,-000.22,000.04,-000.00,000.00,D*30
$GPGLL,3910.8988,N,11708.5787,E,171020.02,A,A*66
$GPVTG,299.7,T,299.7,M,000.0,N,000.0,K,A*23
$GPZDA,171020.02,14,08,2019,00,00*66
$GPHDT,116.5,T*36
$GPROT,000.0,A*31
$SNATT,-000.22,000.04,-000.00,000.00,D*30
$GPGLL,3910.8988,N,11708.5787,E,171020.04,A,A*60
$GPVTG,299.7,T,299.7,M,000.0,N,000.0,K,A*23
$GPZDA,171020.04,14,08,2019,00,00*60
$GPHDT,116.5,T*36
$GPROT,000.0,A*31
$SNATT,-000.22,000.04,-000.00,000.00,D*30
$GPGLL,3910.8988,N,11708.5787,E,171020.06,A,A*62
$GPVTG,265.9,T,265.9,M,000.0,N,000.0,K,A*23
$GPZDA,171020.06,14,08,2019,00,00*62
$GPHDT,116.5,T*36
$GPROT,000.0,A*31
$SNATT,-000.22,000.04,-000.00,000.00,D*30
$GPGLL,3910.8988,N,11708.5787,E,171020.08,A,A*6C
$GPVTG,265.9,T,265.9,M,000.0,N,000.0,K,A*23
$GPZDA,171020.08,14,08,2019,00,00*6C
$GPHDT,116.5,T*36
$GPROT,000.0,A*31
$SNATT,-000.22,000.04,-000.00,000.00,D*30
$GPGLL,3910.8988,N,11708.5787,E,171020.10,A,A*65
$GPVTG,265.9,T,265.9,M,000.0,N,000.0,K,A*23
$GPZDA,171020.10,14,08,2019,00,00*65
$GPHDT,116.5,T*36
$GPROT,000.0,A*31
$SNATT,-000.22,000.04,-000.00,000.00,D*30
$GPGLL,3910.8988,N,11708.5787,E,171020.12,A,A*67
$GPVTG,265.9,T,265.9,M,000.0,N,000.0,K,A*23
$GPZDA,171020.12,14,08,2019,00,00*67
$GPHDT,116.5,T*36
$GPROT,000.0,A*31
$SNATT,-000.22,000.04,-000.00,000.00,D*30
$GPGLL,3910.8988,N,11708.5787,E,171020.14,A,A*61
$GPVTG,265.9,T,265.9,M,000.0,N,000.0,K,A*23
$GPZDA,171020.14,14,08,2019,00,00*61
$GPHDT,116.5,T*36
$GPROT,000.0,A*31
$SNATT,-000.22,000.04,-000.00,000.00,D*30
$GPGLL,3910.8988,N,11708.5787,E,171020.16,A,A*63
$GPVTG,265.9,T,265.9,M,000.0,N,000.0,K,A*23
$GPZDA,171020.16,14,08,2019,00,00*63
$GPHDT,116.5,T*36
$GPROT,000.0,A*31
$SNATT,-000.22,000.04,-000.00,000.00,D*30
$GPGLL,3910.8988,N,11708.5787,E,171020.18,A,A*6D
$GPVTG,265.9,T,265.9,M,000.0,N,000.0,K,A*23
$GPZDA,171020.18,14,08,2019,00,00*6D
$GPHDT,116.5,T*36
$GPROT,000.0,A*31
$SNATT,-000.22,000.04,-000.00,000.00,D*30
$GPGLL,3910.8988,N,11708.5787,E,171020.20,A,A*66
$GPVTG,265.9,T,265.9,M,000.0,N,000.0,K,A*23
$GPZDA,171020.20,14,08,2019,00,00*66
$GPHDT,116.5,T*36
$GPROT,000.0,A*31
$SNATT,-000.22,000.04,-000.00,000.00,D*30
$GPGLL,3910.8988,N,11708.5787,E,171020.22,A,A*64
$GPVTG,265.9,T,265.9,M,000.0,N,000.0,K,A*23
$GPZDA,171020.22,14,08,2019,00,00*64
$GPHDT,116.5,T*36
$GPROT,000.0,A*31
$SNATT,-000.22,000.04,-000.00,000.00,D*30
$GPGLL,3910.8988,N,11708.5787,E,171020.24,A,A*62
$GPVTG,265.9,T,265.9,M,000.0,N,000.0,K,A*23
$GPZDA,171020.24,14,08,2019,00,00*62
$GPHDT,116.5,T*36
$GPROT,000.0,A*31
$SNATT,-000.22,000.04,-000.00,000.00,D*30
$GPGLL,3910.8988,N,11708.5787,E,171020.26,A,A*60
$GPVTG,265.9,T,265.9,M,000.0,N,000.0,K,A*23
$GPZDA,171020.26,14,08,2019,00,00*60
$GPHDT,116.5,T*36
$GPROT,000.0,A*31
$SNATT,-000.22,000.04,-000.00,000.00,D*30
$GPGLL,3910.8988,N,11708.5787,E,171020.28,A,A*6E
$GPVTG,265.9,T,265.9,M,000.0,N,000.0,K,A*23
$GPZDA,171020.28,14,08,2019,00,00*6E
$GPHDT,116.5,T*36
$GPROT,000.0,A*31
$SNATT,-000.22,000.04,-000.00,000.00,D*30
$GPGLL,3910.8988,N,11708.5787,E,171020.30,A,A*67
$GPVTG,265.9,T,265.9,M,000.0,N,000.0,K,A*23
$GPZDA,171020.30,14,08,2019,00,00*67
$GPHDT,116.5,T*36
$GPROT,000.0,A*31
$SNATT,-000.22,000.04,-000.00,000.00,D*30
$GPGLL,3910.8988,N,11708.5787,E,171020.32,A,A*65
$GPVTG,265.9,T,265.9,M,000.0,N,000.0,K,A*23
$GPZDA,171020.32,14,08,2019,00,00*65
$GPHDT,116.5,T*36
$GPROT,000.0,A*31
$SNATT,-000.22,000.04,-000.00,000.00,D*30
$GPGLL,3910.8988,N,11708.5787,E,171020.34,A,A*63
$GPVTG,265.9,T,265.9,M,000.0,N,000.0,K,A*23
$GPZDA,171020.34,14,08,2019,00,00*63
$GPHDT,116.5,T*36
$GPROT,000.0,A*31
$SNATT,-000.22,000.04,-000.00,000.00,D*30
$GPGLL,3910.8988,N,11708.5787,E,171020.36,A,A*61
$GPVTG,265.9,T,265.9,M,000.0,N,000.0,K,A*23
$GPZDA,171020.36,14,08,2019,00,00*61
$GPHDT,116.5,T*36
$GPROT,000.0,A*31
$SNATT,-000.22,000.04,-000.00,000.00,D*30
$GPGLL,3910.8988,N,11708.5787,E,171020.38,A,A*6F
$GPVTG,265.9,T,265.9,M,000.0,N,000.0,K,A*23
$GPZDA,171020.38,14,08,2019,00,00*6F
$GPHDT,116.5,T*36
$GPROT,000.0,A*31
$SNATT,-000.22,000.04,-000.00,000.00,D*30
$GPGLL,3910.8988,N,11708.5787,E,171020.40,A,A*60
$GPVTG,265.9,T,265.9,M,000.0,N,000.0,K,A*23
$GPZDA,171020.40,14,08,2019,00,00*60
$GPHDT,116.5,T*36
$GPROT,000.0,A*31
$SNATT,-000.22,000.04,-000.00,000.00,D*30
$GPGLL,3910.8988,N,11708.5787,E,171020.42,A,A*62
$GPVTG,265.9,T,265.9,M,000.0,N,000.0,K,A*23
$GPZDA,171020.42,14,08,2019,00,00*62
$GPHDT,116.5,T*36
$GPROT,000.0,A*31
$SNATT,-000.22,000.04,-000.00,000.00,D*30
$GPGLL,3910.8988,N,11708.5787,E,171020.44,A,A*64
$GPVTG,265.9,T,265.9,M,000.0,N,000.0,K,A*23
$GPZDA,171020.44,14,08,2019,00,00*64
$GPHDT,116.5,T*36
$GPROT,000.0,A*31
$SNATT,-000.22,000.04,-000.00,000.00,D*30
$GPGLL,3910.8988,N,11708.5787,E,171020.46,A,A*66
$GPVTG,265.9,T,265.9,M,000.0,N,000.0,K,A*23
$GPZDA,171020.46,14,08,2019,00,00*66
$GPHDT,116.5,T*36
$GPROT,000.0,A*31
$SNATT,-000.22,000.04,-000.00,000.00,D*30
$GPGLL,3910.8988,N,11708.5787,E,171020.48,A,A*68
$GPVTG,265.9,T,265.9,M,000.0,N,000.0,K,A*23
$GPZDA,171020.48,14,08,2019,00,00*68
$GPHDT,116.5,T*36
$GPROT,-000.0,A*1C
$SNATT,-000.22,000.04,-000.00,000.00,D*30
$GPGLL,3910.8988,N,11708.5787,E,171020.50,A,A*61
$GPVTG,265.9,T,265.9,M,000.0,N,000.0,K,A*23
$GPZDA,171020.50,14,08,2019,00,00*61
$GPHDT,116.5,T*36
$GPROT,-000.0,A*1C
$SNATT,-000.22,000.04,-000.00,000.00,D*30
$GPGLL,3910.8988,N,11708.5787,E,171020.52,A,A*63
$GPVTG,265.9,T,265.9,M,000.0,N,000.0,K,A*23
$GPZDA,171020.52,14,08,2019,00,00*63
$GPHDT,116.5,T*36
$GPROT,-000.0,A*1C
$SNATT,-000.22,000.04,-000.00,000.00,D*30
$GPGLL,3910.8988,N,11708.5787,E,171020.54,A,A*65
$GPVTG,265.9,T,265.9,M,000.0,N,000.0,K,A*23
$GPZDA,171020.54,14,08,2019,00,00*65
$GPHDT,116.5,T*36
$GPROT,-000.0,A*1C
$SNATT,-000.22,000.04,-000.00,000.00,D*30
$GPGLL,3910.8988,N,11708.5787,E,171020.56,A,A*67
$GPVTG,265.9,T,265.9,M,000.0,N,000.0,K,A*23
$GPZDA,171020.56,14,08,2019,00,00*67
$GPHDT,116.5,T*36
$GPROT,-000.0,A*1C
$SNATT,-000.22,000.04,-000.00,000.00,D*30
$GPGLL,3910.8988,N,11708.5787,E,171020.58,A,A*69
$GPVTG,265.9,T,265.9,M,000.0,N,000.0,K,A*23
$GPZDA,171020.58,14,08,2019,00,00*69
$GPHDT,116.5,T*36
$GPROT,-000.0,A*1C
$SNATT,-000.22,000.04,000.00,000.00,D*1D
$GPGLL,3910.8988,N,11708.5787,E,171020.60,A,A*62
$GPVTG,265.9,T,265.9,M,000.0,N,000.0,K,A*23
$GPZDA,171020.60,14,08,2019,00,00*62
$GPHDT,116.5,T*36
$GPROT,-000.0,A*1C
$SNATT,-000.22,000.04,000.00,000.00,D*1D
$GPGLL,3910.8988,N,11708.5787,E,171020.62,A,A*60
$GPVTG,265.9,T,265.9,M,000.0,N,000.0,K,A*23
$GPZDA,171020.62,14,08,2019,00,00*60
$GPHDT,116.5,T*36
$GPROT,-000.0,A*1C
$SNATT,-000.22,000.04,000.00,000.00,D*1D
$GPGLL,3910.8988,N,11708.5787,E,171020.64,A,A*66
$GPVTG,265.9,T,265.9,M,000.0,N,000.0,K,A*23
$GPZDA,171020.64,14,08,2019,00,00*66
$GPHDT,116.5,T*36
$GPROT,-000.0,A*1C
$SNATT,-000.22,000.04,000.00,000.00,D*1D
$GPGLL,3910.8988,N,11708.5787,E,171020.66,A,A*64
$GPVTG,265.9,T,265.9,M,000.0,N,000.0,K,A*23
$GPZDA,171020.66,14,08,2019,00,00*64
$GPHDT,116.5,T*36
$GPROT,-000.0,A*1C
$SNATT,-000.22,000.04,000.00,000.00,D*1D
$GPGLL,3910.8988,N,11708.5787,E,171020.68,A,A*6A
$GPVTG,265.9,T,265.9,M,000.0,N,000.0,K,A*23
$GPZDA,171020.68,14,08,2019,00,00*6A
$GPHDT,116.5,T*36
$GPROT,-000.0,A*1C
$SNATT,-000.22,000.04,000.00,000.00,D*1D
$GPGLL,3910.8988,N,11708.5787,E,171020.70,A,A*63
$GPVTG,265.9,T,265.9,M,000.0,N,000.0,K,A*23
$GPZDA,171020.70,14,08,2019,00,00*63
$GPHDT,116.5,T*36
$GPROT,000.0,A*31
$SNATT,-000.22,000.04,000.00,000.00,D*1D
$GPGLL,3910.8988,N,11708.5787,E,171020.72,A,A*61
$GPVTG,265.9,T,265.9,M,000.0,N,000.0,K,A*23
$GPZDA,171020.72,14,08,2019,00,00*61
$GPHDT,116.5,T*36
$GPROT,000.0,A*31
$SNATT,-000.22,000.04,000.00,-000.00,D*30
$GPGLL,3910.8988,N,11708.5787,E,171020.74,A,A*67
$GPVTG,265.9,T,265.9,M,000.0,N,000.0,K,A*23
$GPZDA,171020.74,14,08,2019,00,00*67
$GPHDT,116.5,T*36
$GPROT,000.0,A*31
$SNATT,-000.22,000.04,000.00,-000.00,D*30
$GPGLL,3910.8988,N,11708.5787,E,171020.76,A,A*65
$GPVTG,265.9,T,265.9,M,000.0,N,000.0,K,A*23
$GPZDA,171020.76,14,08,2019,00,00*65
$GPHDT,116.5,T*36
$GPROT,-000.0,A*1C
$SNATT,-000.22,000.04,000.00,-000.00,D*30
$GPGLL,3910.8988,N,11708.5787,E,171020.78,A,A*6B
$GPVTG,265.9,T,265.9,M,000.0,N,000.0,K,A*23
$GPZDA,171020.78,14,08,2019,00,00*6B
$GPHDT,116.5,T*36
$GPROT,-000.0,A*1C
$SNATT,-000.22,000.04,000.00,-000.00,D*30
$GPGLL,3910.8988,N,11708.5787,E,171020.80,A,A*6C
$GPVTG,265.9,T,265.9,M,000.0,N,000.0,K,A*23
$GPZDA,171020.80,14,08,2019,00,00*6C
$GPHDT,116.5,T*36
$GPROT,-000.0,A*1C
$SNATT,-000.22,000.04,000.00,-000.00,D*30
$GPGLL,3910.8988,N,11708.5787,E,171020.82,A,A*6E
$GPVTG,265.9,T,265.9,M,000.0,N,000.0,K,A*23
$GPZDA,171020.82,14,08,2019,00,00*6E
$GPHDT,116.5,T*36
$GPROT,-000.0,A*1C
$SNATT,-000.22,000.04,000.00,-000.00,D*30
$GPGLL,3910.8988,N,11708.5787,E,171020.84,A,A*68
$GPVTG,265.9,T,265.9,M,000.0,N,000.0,K,A*23
$GPZDA,171020.84,14,08,2019,00,00*68
$GPHDT,116.5,T*36
$GPROT,-000.0,A*1C
$SNATT,-000.22,000.04,000.00,-000.00,D*30
$GPGLL,3910.8988,N,11708.5787,E,171020.86,A,A*6A
$GPVTG,265.9,T,265.9,M,000.0,N,000.0,K,A*23
$GPZDA,171020.86,14,08,2019,00,00*6A
$GPHDT,116.5,T*36
$GPROT,-000.0,A*1C
$SNATT,-000.22,000.04,000.00,-000.00,D*30
$GPGLL,3910.8988,N,11708.5787,E,171020.88,A,A*64
$GPVTG,265.9,T,265.9,M,000.0,N,000.0,K,A*23
$GPZDA,171020.88,14,08,2019,00,00*64
$GPHDT,116.5,T*36
$GPROT,-000.0,A*1C
$SNATT,-000.22,000.04,000.00,-000.00,D*30
$GPGLL,3910.8988,N,11708.5787,E,171020.90,A,A*6D
$GPVTG,265.9,T,265.9,M,000.0,N,000.0,K,A*23
$GPZDA,171020.90,14,08,2019,00,00*6D
$GPHDT,116.5,T*36
$GPROT,-000.0,A*1C
$SNATT,-000.22,000.04,000.00,-000.00,D*30
$GPGLL,3910.8988,N,11708.5787,E,171020.92,A,A*6F
$GPVTG,265.9,T,265.9,M,000.0,N,000.0,K,A*23
$GPZDA,171020.92,14,08,2019,00,00*6F
$GPHDT,116.5,T*36
$GPROT,-000.0,A*1C
$SNATT,-000.22,000.04,000.00,-000.00,D*30
$GPGLL,3910.8988,N,11708.5787,E,171020.94,A,A*69
$GPVTG,265.9,T,265.9,M,000.0,N,000.0,K,A*23
$GPZDA,171020.94,14,08,2019,00,00*69
$GPHDT,116.5,T*36
$GPROT,-000.0,A*1C
$SNATT,-000.22,000.04,000.00,-000.00,D*30
$GPGLL,3910.8988,N,11708.5787,E,171020.96,A,A*6B
$GPVTG,265.9,T,265.9,M,000.0,N,000.0,K,A*23
$GPZDA,171020.96,14,08,2019,00,00*6B
$GPHDT,116.5,T*36
$GPROT,-000.0,A*1C
$SNATT,-000.22,000.04,000.00,-000.00,D*30
$GPGLL,3910.8988,N,11708.5787,E,171020.98,A,A*65
$GPVTG,265.9,T,265.9,M,000.0,N,000.0,K,A*23
$GPZDA,171020.98,14,08,2019,00,00*65
$GPHDT,116.5,T*36
$GPROT,-000.0,A*1C
$SNATT,-000.22,000.04,000.00,-000.00,D*30
$GPGLL,3910.8988,N,11708.5787,E,171021.00,A,A*65
$GPVTG,265.9,T,265.9,M,000.0,N,000.0,K,A*23
$GPZDA,171021.00,14,08,2019,00,00*65
$GPHDT,116.5,T*36
$GPROT,-000.0,A*1C
$SNATT,-000.22,000.04,000.00,-000.00,D*30
$GPGLL,3910.8988,N,11708.5787,E,171021.02,A,A*67
$GPVTG,265.9,T,265.9,M,000.0,N,000.0,K,A*23
$GPZDA,171021.02,14,08,2019,00,00*67
$GPHDT,116.5,T*36
$GPROT,-000.0,A*1C
$SNATT,-000.22,000.04,000.00,-000.00,D*30
$GPGLL,3910.8988,N,11708.5787,E,171021.04,A,A*61
$GPVTG,265.9,T,265.9,M,000.0,N,000.0,K,A*23
$GPZDA,171021.04,14,08,2019,00,00*61
$GPHDT,116.5,T*36
$GPROT,-000.0,A*1C
$SNATT,-000.22,000.04,000.00,-000.00,D*30
$GPGLL,3910.8988,N,11708.5787,E,171021.06,A,A*63
$GPVTG,253.7,T,253.7,M,000.0,N,000.0,K,A*23
$GPZDA,171021.06,14,08,2019,00,00*63
$GPHDT,116.5,T*36
$GPROT,-000.0,A*1C
$SNATT,-000.22,000.04,000.00,-000.00,D*30
$GPGLL,3910.8988,N,11708.5787,E,171021.08,A,A*6D
$GPVTG,253.7,T,253.7,M,000.0,N,000.0,K,A*23
$GPZDA,171021.08,14,08,2019,00,00*6D
$GPHDT,116.5,T*36
$GPROT,-000.0,A*1C
$SNATT,-000.22,000.04,000.00,-000.00,D*30
$GPGLL,3910.8988,N,11708.5787,E,171021.10,A,A*64
$GPVTG,253.7,T,253.7,M,000.0,N,000.0,K,A*23
$GPZDA,171021.10,14,08,2019,00,00*64
$GPHDT,116.5,T*36
$GPROT,000.0,A*31
$SNATT,-000.22,000.04,000.00,-000.00,D*30
$GPGLL,3910.8988,N,11708.5787,E,171021.12,A,A*66
$GPVTG,253.7,T,253.7,M,000.0,N,000.0,K,A*23
$GPZDA,171021.12,14,08,2019,00,00*66
$GPHDT,116.5,T*36
$GPROT,000.0,A*31
$SNATT,-000.22,000.04,000.00,-000.00,D*30
$GPGLL,3910.8988,N,11708.5787,E,171021.14,A,A*60
$GPVTG,253.7,T,253.7,M,000.0,N,000.0,K,A*23
$GPZDA,171021.14,14,08,2019,00,00*60
$GPHDT,116.5,T*36
$GPROT,000.0,A*31
$SNATT,-000.22,000.04,-000.00,-000.00,D*1D
$GPGLL,3910.8988,N,11708.5787,E,171021.16,A,A*62
$GPVTG,253.7,T,253.7,M,000.0,N,000.0,K,A*23
$GPZDA,171021.16,14,08,2019,00,00*62
$GPHDT,116.5,T*36
$GPROT,000.0,A*31
$SNATT,-000.22,000.04,-000.00,-000.00,D*1D
$GPGLL,3910.8988,N,11708.5787,E,171021.18,A,A*6C
$GPVTG,253.7,T,253.7,M,000.0,N,000.0,K,A*23
$GPZDA,171021.18,14,08,2019,00,00*6C
$GPHDT,116.5,T*36
$GPROT,000.0,A*31
$SNATT,-000.22,000.04,-000.00,000.00,D*30
$GPGLL,3910.8988,N,11708.5787,E,171021.20,A,A*67
$GPVTG,253.7,T,253.7,M,000.0,N,000.0,K,A*23
$GPZDA,171021.20,14,08,2019,00,00*67
$GPHDT,116.5,T*36
$GPROT,000.0,A*31
$SNATT,-000.22,000.04,-000.00,000.00,D*30
$GPGLL,3910.8988,N,11708.5787,E,171021.22,A,A*65
$GPVTG,253.7,T,253.7,M,000.0,N,000.0,K,A*23
$GPZDA,171021.22,14,08,2019,00,00*65
$GPHDT,116.5,T*36
$GPROT,000.0,A*31
$SNATT,-000.22,000.04,-000.00,000.00,D*30
$GPGLL,3910.8988,N,11708.5787,E,171021.24,A,A*63
$GPVTG,253.7,T,253.7,M,000.0,N,000.0,K,A*23
$GPZDA,171021.24,14,08,2019,00,00*63
$GPHDT,116.5,T*36
$GPROT,000.0,A*31
$SNATT,-000.22,000.04,-000.00,000.00,D*30
$GPGLL,3910.8988,N,11708.5787,E,171021.26,A,A*61
$GPVTG,253.7,T,253.7,M,000.0,N,000.0,K,A*23
$GPZDA,171021.26,14,08,2019,00,00*61
$GPHDT,116.5,T*36
$GPROT,000.0,A*31
$SNATT,-000.22,000.04,-000.00,000.00,D*30
$GPGLL,3910.8988,N,11708.5787,E,171021.28,A,A*6F
$GPVTG,253.7,T,253.7,M,000.0,N,000.0,K,A*23
$GPZDA,171021.28,14,08,2019,00,00*6F
$GPHDT,116.5,T*36
$GPROT,000.0,A*31
$SNATT,-000.22,000.04,-000.00,000.00,D*30
$GPGLL,3910.8988,N,11708.5787,E,171021.30,A,A*66
$GPVTG,253.7,T,253.7,M,000.0,N,000.0,K,A*23
$GPZDA,171021.30,14,08,2019,00,00*66
$GPHDT,116.5,T*36
$GPROT,000.0,A*31
$SNATT,-000.22,000.04,-000.00,000.00,D*30
$GPGLL,3910.8988,N,11708.5787,E,171021.32,A,A*64
$GPVTG,253.7,T,253.7,M,000.0,N,000.0,K,A*23
$GPZDA,171021.32,14,08,2019,00,00*64
$GPHDT,116.5,T*36
$GPROT,000.0,A*31
$SNATT,-000.22,000.04,-000.00,000.00,D*30
$GPGLL,3910.8988,N,11708.5787,E,171021.34,A,A*62
$GPVTG,253.7,T,253.7,M,000.0,N,000.0,K,A*23
$GPZDA,171021.34,14,08,2019,00,00*62
$GPHDT,116.5,T*36
$GPROT,000.0,A*31
$SNATT,-000.22,000.04,-000.00,000.00,D*30
$GPGLL,3910.8988,N,11708.5787,E,171021.36,A,A*60
$GPVTG,253.7,T,253.7,M,000.0,N,000.0,K,A*23
$GPZDA,171021.36,14,08,2019,00,00*60
$GPHDT,116.5,T*36
$GPROT,000.0,A*31
$SNATT,-000.22,000.04,-000.00,000.00,D*30
$GPGLL,3910.8988,N,11708.5787,E,171021.38,A,A*6E
$GPVTG,253.7,T,253.7,M,000.0,N,000.0,K,A*23
$GPZDA,171021.38,14,08,2019,00,00*6E
$GPHDT,116.5,T*36
$GPROT,000.0,A*31
$SNATT,-000.22,000.04,-000.00,000.00,D*30
$GPGLL,3910.8988,N,11708.5787,E,171021.40,A,A*61
$GPVTG,253.7,T,253.7,M,000.0,N,000.0,K,A*23
$GPZDA,171021.40,14,08,2019,00,00*61
$GPHDT,116.5,T*36
$GPROT,000.0,A*31
$SNATT,-000.22,000.04,-000.00,000.00,D*30
$GPGLL,3910.8988,N,11708.5787,E,171021.42,A,A*63
$GPVTG,253.7,T,253.7,M,000.0,N,000.0,K,A*23
$GPZDA,171021.42,14,08,2019,00,00*63
$GPHDT,116.5,T*36
$GPROT,000.0,A*31
$SNATT,-000.22,000.04,-000.00,000.00,D*30
$GPGLL,3910.8988,N,11708.5787,E,171021.44,A,A*65
$GPVTG,253.7,T,253.7,M,000.0,N,000.0,K,A*23
$GPZDA,171021.44,14,08,2019,00,00*65
$GPHDT,116.5,T*36
$GPROT,000.0,A*31
$SNATT,-000.22,000.04,-000.00,000.00,D*30
$GPGLL,3910.8988,N,11708.5787,E,171021.46,A,A*67
$GPVTG,253.7,T,253.7,M,000.0,N,000.0,K,A*23
$GPZDA,171021.46,14,08,2019,00,00*67
$GPHDT,116.5,T*36
$GPROT,000.0,A*31
$SNATT,-000.22,000.04,-000.00,000.00,D*30
$GPGLL,3910.8988,N,11708.5787,E,171021.48,A,A*69
$GPVTG,253.7,T,253.7,M,000.0,N,000.0,K,A*23
$GPZDA,171021.48,14,08,2019,00,00*69
$GPHDT,116.5,T*36
$GPROT,000.0,A*31
$SNATT,-000.22,000.04,-000.00,000.00,D*30
$GPGLL,3910.8988,N,11708.5787,E,171021.50,A,A*60
$GPVTG,253.7,T,253.7,M,000.0,N,000.0,K,A*23
$GPZDA,171021.50,14,08,2019,00,00*60
$GPHDT,116.5,T*36
$GPROT,000.0,A*31
$SNATT,-000.22,000.04,-000.00,000.00,D*30
$GPGLL,3910.8988,N,11708.5787,E,171021.52,A,A*62
$GPVTG,253.7,T,253.7,M,000.0,N,000.0,K,A*23
$GPZDA,171021.52,14,08,2019,00,00*62
$GPHDT,116.5,T*36
$GPROT,000.0,A*31
$SNATT,-000.22,000.04,-000.00,000.00,D*30
$GPGLL,3910.8988,N,11708.5787,E,171021.54,A,A*64
$GPVTG,253.7,T,253.7,M,000.0,N,000.0,K,A*23
$GPZDA,171021.54,14,08,2019,00,00*64
$GPHDT,116.5,T*36
$GPROT,000.0,A*31
$SNATT,-000.22,000.04,-000.00,000.00,D*30
$GPGLL,3910.8988,N,11708.5787,E,171021.56,A,A*66
$GPVTG,253.7,T,253.7,M,000.0,N,000.0,K,A*23
$GPZDA,171021.56,14,08,2019,00,00*66
$GPHDT,116.5,T*36
$GPROT,000.0,A*31
$SNATT,-000.22,000.04,-000.00,000.00,D*30
$GPGLL,3910.8988,N,11708.5787,E,171021.58,A,A*68
$GPVTG,253.7,T,253.7,M,000.0,N,000.0,K,A*23
$GPZDA,171021.58,14,08,2019,00,00*68
$GPHDT,116.5,T*36
$GPROT,000.0,A*31
$SNATT,-000.22,000.04,-000.00,000.00,D*30
$GPGLL,3910.8988,N,11708.5787,E,171021.60,A,A*63
$GPVTG,253.7,T,253.7,M,000.0,N,000.0,K,A*23
$GPZDA,171021.60,14,08,2019,00,00*63
$GPHDT,116.5,T*36
$GPROT,000.0,A*31
$SNATT,-000.22,000.04,-000.00,000.00,D*30
$GPGLL,3910.8988,N,11708.5787,E,171021.62,A,A*61
$GPVTG,253.7,T,253.7,M,000.0,N,000.0,K,A*23
$GPZDA,171021.62,14,08,2019,00,00*61
$GPHDT,116.5,T*36
$GPROT,-000.0,A*1C
$SNATT,-000.22,000.04,-000.00,000.00,D*30
$GPGLL,3910.8988,N,11708.5787,E,171021.64,A,A*67
$GPVTG,253.7,T,253.7,M,000.0,N,000.0,K,A*23
$GPZDA,171021.64,14,08,2019,00,00*67
$GPHDT,116.5,T*36
$GPROT,-000.0,A*1C
$SNATT,-000.22,000.04,-000.00,000.00,D*30
$GPGLL,3910.8988,N,11708.5787,E,171021.66,A,A*65
$GPVTG,253.7,T,253.7,M,000.0,N,000.0,K,A*23
$GPZDA,171021.66,14,08,2019,00,00*65
$GPHDT,116.5,T*36
$GPROT,-000.0,A*1C
$SNATT,-000.22,000.04,-000.00,000.00,D*30
$GPGLL,3910.8988,N,11708.5787,E,171021.68,A,A*6B
$GPVTG,253.7,T,253.7,M,000.0,N,000.0,K,A*23
$GPZDA,171021.68,14,08,2019,00,00*6B
$GPHDT,116.5,T*36
$GPROT,-000.0,A*1C
$SNATT,-000.22,000.04,-000.00,000.00,D*30
$GPGLL,3910.8988,N,11708.5787,E,171021.70,A,A*62
$GPVTG,253.7,T,253.7,M,000.0,N,000.0,K,A*23
$GPZDA,171021.70,14,08,2019,00,00*62
$GPHDT,116.5,T*36
$GPROT,-000.0,A*1C
$SNATT,-000.22,000.04,-000.00,000.00,D*30
$GPGLL,3910.8988,N,11708.5787,E,171021.72,A,A*60
$GPVTG,253.7,T,253.7,M,000.0,N,000.0,K,A*23
$GPZDA,171021.72,14,08,2019,00,00*60
$GPHDT,116.5,T*36
$GPROT,-000.0,A*1C
$SNATT,-000.22,000.04,-000.00,000.00,D*30
$GPGLL,3910.8988,N,11708.5787,E,171021.74,A,A*66
$GPVTG,253.7,T,253.7,M,000.0,N,000.0,K,A*23
$GPZDA,171021.74,14,08,2019,00,00*66
$GPHDT,116.5,T*36
$GPROT,-000.0,A*1C
$SNATT,-000.22,000.04,-000.00,000.00,D*30
$GPGLL,3910.8988,N,11708.5787,E,171021.76,A,A*64
$GPVTG,253.7,T,253.7,M,000.0,N,000.0,K,A*23
$GPZDA,171021.76,14,08,2019,00,00*64
$GPHDT,116.5,T*36
$GPROT,-000.0,A*1C
$SNATT,-000.22,000.04,-000.00,000.00,D*30
$GPGLL,3910.8988,N,11708.5787,E,171021.78,A,A*6A
$GPVTG,253.7,T,253.7,M,000.0,N,000.0,K,A*23
$GPZDA,171021.78,14,08,2019,00,00*6A
$GPHDT,116.5,T*36
$GPROT,-000.0,A*1C
$SNATT,-000.22,000.04,-000.00,000.00,D*30
$GPGLL,3910.8988,N,11708.5787,E,171021.80,A,A*6D
$GPVTG,253.7,T,253.7,M,000.0,N,000.0,K,A*23
$GPZDA,171021.80,14,08,2019,00,00*6D
$GPHDT,116.5,T*36
$GPROT,-000.0,A*1C
$SNATT,-000.22,000.04,-000.00,000.00,D*30
$GPGLL,3910.8988,N,11708.5787,E,171021.82,A,A*6F
$GPVTG,253.7,T,253.7,M,000.0,N,000.0,K,A*23
$GPZDA,171021.82,14,08,2019,00,00*6F
$GPHDT,116.5,T*36
$GPROT,-000.0,A*1C
$SNATT,-000.22,000.04,-000.00,000.00,D*30
$GPGLL,3910.8988,N,11708.5787,E,171021.84,A,A*69
$GPVTG,253.7,T,253.7,M,000.0,N,000.0,K,A*23
$GPZDA,171021.84,14,08,2019,00,00*69
$GPHDT,116.5,T*36
$GPROT,-000.0,A*1C
$SNATT,-000.22,000.04,-000.00,000.00,D*30
$GPGLL,3910.8988,N,11708.5787,E,171021.86,A,A*6B
$GPVTG,253.7,T,253.7,M,000.0,N,000.0,K,A*23
$GPZDA,171021.86,14,08,2019,00,00*6B
$GPHDT,116.5,T*36
$GPROT,-000.0,A*1C
$SNATT,-000.22,000.04,-000.00,000.00,D*30
$GPGLL,3910.8988,N,11708.5787,E,171021.88,A,A*65
$GPVTG,253.7,T,253.7,M,000.0,N,000.0,K,A*23
$GPZDA,171021.88,14,08,2019,00,00*65
$GPHDT,116.5,T*36
$GPROT,-000.0,A*1C
$SNATT,-000.22,000.04,-000.00,000.00,D*30
$GPGLL,3910.8988,N,11708.5787,E,171021.90,A,A*6C
$GPVTG,253.7,T,253.7,M,000.0,N,000.0,K,A*23
$GPZDA,171021.90,14,08,2019,00,00*6C
$GPHDT,116.5,T*36
$GPROT,-000.0,A*1C
$SNATT,-000.22,000.04,-000.00,000.00,D*30
$GPGLL,3910.8988,N,11708.5787,E,171021.92,A,A*6E
$GPVTG,253.7,T,253.7,M,000.0,N,000.0,K,A*23
$GPZDA,171021.92,14,08,2019,00,00*6E
$GPHDT,116.5,T*36
$GPROT,-000.0,A*1C
$SNATT,-000.22,000.04,-000.00,000.00,D*30
$GPGLL,3910.8988,N,11708.5787,E,171021.94,A,A*68
$GPVTG,253.7,T,253.7,M,000.0,N,000.0,K,A*23
$GPZDA,171021.94,14,08,2019,00,00*68
$GPHDT,116.5,T*36
$GPROT,-000.0,A*1C
$SNATT,-000.22,000.04,-000.00,000.00,D*30
$GPGLL,3910.8988,N,11708.5787,E,171021.96,A,A*6A
$GPVTG,253.7,T,253.7,M,000.0,N,000.0,K,A*23
$GPZDA,171021.96,14,08,2019,00,00*6A
$GPHDT,116.5,T*36
$GPROT,-000.0,A*1C
$SNATT,-000.22,000.04,-000.00,000.00,D*30
$GPGLL,3910.8988,N,11708.5787,E,171021.98,A,A*64
$GPVTG,253.7,T,253.7,M,000.0,N,000.0,K,A*23
$GPZDA,171021.98,14,08,2019,00,00*64
$GPHDT,116.5,T*36
$GPROT,-000.0,A*1C
$SNATT,-000.22,000.04,-000.00,000.00,D*30
$GPGLL,3910.8988,N,11708.5787,E,171022.00,A,A*66
$GPVTG,253.7,T,253.7,M,000.0,N,000.0,K,A*23
$GPZDA,171022.00,14,08,2019,00,00*66
$GPHDT,116.5,T*36
$GPROT,-000.0,A*1C
$SNATT,-000.22,000.04,-000.00,000.00,D*30
$GPGLL,3910.8988,N,11708.5787,E,171022.02,A,A*64
$GPVTG,253.7,T,253.7,M,000.0,N,000.0,K,A*23
$GPZDA,171022.02,14,08,2019,00,00*64
$GPHDT,116.5,T*36
$GPROT,-000.0,A*1C
$SNATT,-000.22,000.04,-000.00,-000.00,D*1D
$GPGLL,3910.8988,N,11708.5787,E,171022.04,A,A*62
$GPVTG,253.7,T,253.7,M,000.0,N,000.0,K,A*23
$GPZDA,171022.04,14,08,2019,00,00*62
$GPHDT,116.5,T*36
$GPROT,-000.0,A*1C
$SNATT,-000.22,000.04,-000.00,-000.00,D*1D
$GPGLL,3910.8988,N,11708.5787,E,171022.06,A,A*60
$GPVTG,218.8,T,218.8,M,000.0,N,000.0,K,A*23
$GPZDA,171022.06,14,08,2019,00,00*60
$GPHDT,116.5,T*36
$GPROT,-000.0,A*1C
$SNATT,-000.22,000.04,-000.00,-000.00,D*1D
$GPGLL,3910.8988,N,11708.5787,E,171022.08,A,A*6E
$GPVTG,218.8,T,218.8,M,000.0,N,000.0,K,A*23
$GPZDA,171022.08,14,08,2019,00,00*6E
$GPHDT,116.5,T*36
$GPROT,-000.0,A*1C
$SNATT,-000.22,000.04,-000.00,-000.00,D*1D
$GPGLL,3910.8988,N,11708.5787,E,171022.10,A,A*67
$GPVTG,218.8,T,218.8,M,000.0,N,000.0,K,A*23
$GPZDA,171022.10,14,08,2019,00,00*67
$GPHDT,116.5,T*36
$GPROT,-000.0,A*1C
$SNATT,-000.22,000.04,-000.00,-000.00,D*1D
$GPGLL,3910.8988,N,11708.5787,E,171022.12,A,A*65
$GPVTG,218.8,T,218.8,M,000.0,N,000.0,K,A*23
$GPZDA,171022.12,14,08,2019,00,00*65
$GPHDT,116.5,T*36
$GPROT,-000.0,A*1C
$SNATT,-000.22,000.04,-000.00,-000.00,D*1D
$GPGLL,3910.8988,N,11708.5787,E,171022.14,A,A*63
$GPVTG,218.8,T,218.8,M,000.0,N,000.0,K,A*23
$GPZDA,171022.14,14,08,2019,00,00*63
$GPHDT,116.5,T*36
$GPROT,-000.0,A*1C
$SNATT,-000.22,000.04,-000.00,-000.00,D*1D
$GPGLL,3910.8988,N,11708.5787,E,171022.16,A,A*61
$GPVTG,218.8,T,218.8,M,000.0,N,000.0,K,A*23
$GPZDA,171022.16,14,08,2019,00,00*61
$GPHDT,116.5,T*36
$GPROT,-000.0,A*1C
$SNATT,-000.22,000.04,-000.00,-000.00,D*1D
$GPGLL,3910.8988,N,11708.5787,E,171022.18,A,A*6F
$GPVTG,218.8,T,218.8,M,000.0,N,000.0,K,A*23
$GPZDA,171022.18,14,08,2019,00,00*6F
$GPHDT,116.5,T*36
$GPROT,-000.0,A*1C
$SNATT,-000.22,000.04,-000.00,-000.00,D*1D
$GPGLL,3910.8988,N,11708.5787,E,171022.20,A,A*64
$GPVTG,218.8,T,218.8,M,000.0,N,000.0,K,A*23
$GPZDA,171022.20,14,08,2019,00,00*64
$GPHDT,116.5,T*36
$GPROT,-000.0,A*1C
$SNATT,-000.22,000.04,-000.00,-000.00,D*1D
$GPGLL,3910.8988,N,11708.5787,E,171022.22,A,A*66
$GPVTG,218.8,T,218.8,M,000.0,N,000.0,K,A*23
$GPZDA,171022.22,14,08,2019,00,00*66
$GPHDT,116.5,T*36
$GPROT,-000.0,A*1C
$SNATT,-000.22,000.04,-000.00,-000.00,D*1D
$GPGLL,3910.8988,N,11708.5787,E,171022.24,A,A*60
$GPVTG,218.8,T,218.8,M,000.0,N,000.0,K,A*23
$GPZDA,171022.24,14,08,2019,00,00*60
$GPHDT,116.5,T*36
$GPROT,-000.0,A*1C
$SNATT,-000.22,000.04,-000.00,-000.00,D*1D
$GPGLL,3910.8988,N,11708.5787,E,171022.26,A,A*62
$GPVTG,218.8,T,218.8,M,000.0,N,000.0,K,A*23
$GPZDA,171022.26,14,08,2019,00,00*62
$GPHDT,116.5,T*36
$GPROT,-000.0,A*1C
$SNATT,-000.22,000.04,-000.00,-000.00,D*1D
$GPGLL,3910.8988,N,11708.5787,E,171022.28,A,A*6C
$GPVTG,218.8,T,218.8,M,000.0,N,000.0,K,A*23
$GPZDA,171022.28,14,08,2019,00,00*6C
$GPHDT,116.5,T*36
$GPROT,-000.0,A*1C
$SNATT,-000.22,000.04,-000.00,-000.00,D*1D
$GPGLL,3910.8988,N,11708.5787,E,171022.30,A,A*65
$GPVTG,218.8,T,218.8,M,000.0,N,000.0,K,A*23
$GPZDA,171022.30,14,08,2019,00,00*65
$GPHDT,116.5,T*36
$GPROT,-000.0,A*1C
$SNATT,-000.22,000.04,-000.00,-000.00,D*1D
$GPGLL,3910.8988,N,11708.5787,E,171022.32,A,A*67
$GPVTG,218.8,T,218.8,M,000.0,N,000.0,K,A*23
$GPZDA,171022.32,14,08,2019,00,00*67
$GPHDT,116.5,T*36
$GPROT,-000.0,A*1C
$SNATT,-000.22,000.04,-000.00,-000.00,D*1D
$GPGLL,3910.8988,N,11708.5787,E,171022.34,A,A*61
$GPVTG,218.8,T,218.8,M,000.0,N,000.0,K,A*23
$GPZDA,171022.34,14,08,2019,00,00*61
$GPHDT,116.5,T*36
$GPROT,-000.0,A*1C
$SNATT,-000.22,000.04,-000.00,-000.00,D*1D
$GPGLL,3910.8988,N,11708.5787,E,171022.36,A,A*63
$GPVTG,218.8,T,218.8,M,000.0,N,000.0,K,A*23
$GPZDA,171022.36,14,08,2019,00,00*63
$GPHDT,116.5,T*36
$GPROT,-000.0,A*1C
$SNATT,-000.22,000.04,-000.00,-000.00,D*1D
$GPGLL,3910.8988,N,11708.5787,E,171022.38,A,A*6D
$GPVTG,218.8,T,218.8,M,000.0,N,000.0,K,A*23
$GPZDA,171022.38,14,08,2019,00,00*6D
$GPHDT,116.5,T*36
$GPROT,-000.0,A*1C
$SNATT,-000.22,000.04,-000.00,-000.00,D*1D
$GPGLL,3910.8988,N,11708.5787,E,171022.40,A,A*62
$GPVTG,218.8,T,218.8,M,000.0,N,000.0,K,A*23
$GPZDA,171022.40,14,08,2019,00,00*62
$GPHDT,116.5,T*36
$GPROT,-000.0,A*1C
$SNATT,-000.22,000.04,000.00,-000.00,D*30
$GPGLL,3910.8988,N,11708.5787,E,171022.42,A,A*60
$GPVTG,218.8,T,218.8,M,000.0,N,000.0,K,A*23
$GPZDA,171022.42,14,08,2019,00,00*60
$GPHDT,116.5,T*36
$GPROT,-000.0,A*1C
$SNATT,-000.22,000.04,000.00,-000.00,D*30
$GPGLL,3910.8988,N,11708.5787,E,171022.44,A,A*66
$GPVTG,218.8,T,218.8,M,000.0,N,000.0,K,A*23
$GPZDA,171022.44,14,08,2019,00,00*66
$GPHDT,116.5,T*36
$GPROT,-000.0,A*1C
$SNATT,-000.22,000.04,000.00,-000.00,D*30
$GPGLL,3910.8988,N,11708.5787,E,171022.46,A,A*64
$GPVTG,218.8,T,218.8,M,000.0,N,000.0,K,A*23
$GPZDA,171022.46,14,08,2019,00,00*64
$GPHDT,116.5,T*36
$GPROT,-000.0,A*1C
$SNATT,-000.22,000.04,000.00,-000.00,D*30
$GPGLL,3910.8988,N,11708.5787,E,171022.48,A,A*6A
$GPVTG,218.8,T,218.8,M,000.0,N,000.0,K,A*23
$GPZDA,171022.48,14,08,2019,00,00*6A
$GPHDT,116.5,T*36
$GPROT,-000.0,A*1C
$SNATT,-000.22,000.04,000.00,-000.00,D*30
$GPGLL,3910.8988,N,11708.5787,E,171022.50,A,A*63
$GPVTG,218.8,T,218.8,M,000.0,N,000.0,K,A*23
$GPZDA,171022.50,14,08,2019,00,00*63
$GPHDT,116.5,T*36
$GPROT,-000.0,A*1C
$SNATT,-000.22,000.04,000.00,-000.00,D*30
$GPGLL,3910.8988,N,11708.5787,E,171022.52,A,A*61
$GPVTG,218.8,T,218.8,M,000.0,N,000.0,K,A*23
$GPZDA,171022.52,14,08,2019,00,00*61
$GPHDT,116.5,T*36
$GPROT,-000.0,A*1C
$SNATT,-000.22,000.04,000.00,-000.00,D*30
$GPGLL,3910.8988,N,11708.5787,E,171022.54,A,A*67
$GPVTG,218.8,T,218.8,M,000.0,N,000.0,K,A*23
$GPZDA,171022.54,14,08,2019,00,00*67
$GPHDT,116.5,T*36
$GPROT,-000.0,A*1C
$SNATT,-000.22,000.04,000.00,-000.00,D*30
$GPGLL,3910.8988,N,11708.5787,E,171022.56,A,A*65
$GPVTG,218.8,T,218.8,M,000.0,N,000.0,K,A*23
$GPZDA,171022.56,14,08,2019,00,00*65
$GPHDT,116.5,T*36
$GPROT,-000.0,A*1C
$SNATT,-000.22,000.04,000.00,-000.00,D*30
$GPGLL,3910.8988,N,11708.5787,E,171022.58,A,A*6B
$GPVTG,218.8,T,218.8,M,000.0,N,000.0,K,A*23
$GPZDA,171022.58,14,08,2019,00,00*6B
$GPHDT,116.5,T*36
$GPROT,-000.0,A*1C
$SNATT,-000.22,000.04,000.00,-000.00,D*30
$GPGLL,3910.8988,N,11708.5787,E,171022.60,A,A*60
$GPVTG,218.8,T,218.8,M,000.0,N,000.0,K,A*23
$GPZDA,171022.60,14,08,2019,00,00*60
$GPHDT,116.5,T*36
$GPROT,-000.0,A*1C
$SNATT,-000.22,000.04,000.00,-000.00,D*30
$GPGLL,3910.8988,N,11708.5787,E,171022.62,A,A*62
$GPVTG,218.8,T,218.8,M,000.0,N,000.0,K,A*23
$GPZDA,171022.62,14,08,2019,00,00*62
$GPHDT,116.5,T*36
$GPROT,-000.0,A*1C
$SNATT,-000.22,000.04,000.00,-000.00,D*30
$GPGLL,3910.8988,N,11708.5787,E,171022.64,A,A*64
$GPVTG,218.8,T,218.8,M,000.0,N,000.0,K,A*23
$GPZDA,171022.64,14,08,2019,00,00*64
$GPHDT,116.5,T*36
$GPROT,-000.0,A*1C
$SNATT,-000.22,000.04,000.00,-000.00,D*30
$GPGLL,3910.8988,N,11708.5787,E,171022.66,A,A*66
$GPVTG,218.8,T,218.8,M,000.0,N,000.0,K,A*23
$GPZDA,171022.66,14,08,2019,00,00*66
$GPHDT,116.5,T*36
$GPROT,-000.0,A*1C
$SNATT,-000.22,000.04,000.00,-000.00,D*30
$GPGLL,3910.8988,N,11708.5787,E,171022.68,A,A*68
$GPVTG,218.8,T,218.8,M,000.0,N,000.0,K,A*23
$GPZDA,171022.68,14,08,2019,00,00*68
$GPHDT,116.5,T*36
$GPROT,-000.0,A*1C
$SNATT,-000.22,000.04,000.00,-000.00,D*30
$GPGLL,3910.8988,N,11708.5787,E,171022.70,A,A*61
$GPVTG,218.8,T,218.8,M,000.0,N,000.0,K,A*23
$GPZDA,171022.70,14,08,2019,00,00*61
$GPHDT,116.5,T*36
$GPROT,-000.0,A*1C
$SNATT,-000.22,000.04,000.00,-000.00,D*30
$GPGLL,3910.8988,N,11708.5787,E,171022.72,A,A*63
$GPVTG,218.8,T,218.8,M,000.0,N,000.0,K,A*23
$GPZDA,171022.72,14,08,2019,00,00*63
$GPHDT,116.5,T*36
$GPROT,-000.0,A*1C
$SNATT,-000.22,000.04,000.00,-000.00,D*30
$GPGLL,3910.8988,N,11708.5787,E,171022.74,A,A*65
$GPVTG,218.8,T,218.8,M,000.0,N,000.0,K,A*23
$GPZDA,171022.74,14,08,2019,00,00*65
$GPHDT,116.5,T*36
$GPROT,-000.0,A*1C
$SNATT,-000.22,000.04,000.00,-000.00,D*30
$GPGLL,3910.8988,N,11708.5787,E,171022.76,A,A*67
$GPVTG,218.8,T,218.8,M,000.0,N,000.0,K,A*23
$GPZDA,171022.76,14,08,2019,00,00*67
$GPHDT,116.5,T*36
$GPROT,-000.0,A*1C
$SNATT,-000.22,000.04,000.00,-000.00,D*30
$GPGLL,3910.8988,N,11708.5787,E,171022.78,A,A*69
$GPVTG,218.8,T,218.8,M,000.0,N,000.0,K,A*23
$GPZDA,171022.78,14,08,2019,00,00*69
$GPHDT,116.5,T*36
$GPROT,-000.0,A*1C
$SNATT,-000.22,000.04,000.00,-000.00,D*30
$GPGLL,3910.8988,N,11708.5787,E,171022.80,A,A*6E
$GPVTG,218.8,T,218.8,M,000.0,N,000.0,K,A*23
$GPZDA,171022.80,14,08,2019,00,00*6E
$GPHDT,116.5,T*36
$GPROT,-000.0,A*1C
$SNATT,-000.22,000.04,000.00,-000.00,D*30
$GPGLL,3910.8988,N,11708.5787,E,171022.82,A,A*6C
$GPVTG,218.8,T,218.8,M,000.0,N,000.0,K,A*23
$GPZDA,171022.82,14,08,2019,00,00*6C
$GPHDT,116.5,T*36
$GPROT,-000.0,A*1C
$SNATT,-000.22,000.04,000.00,-000.00,D*30
$GPGLL,3910.8988,N,11708.5787,E,171022.84,A,A*6A
$GPVTG,218.8,T,218.8,M,000.0,N,000.0,K,A*23
$GPZDA,171022.84,14,08,2019,00,00*6A
$GPHDT,116.5,T*36
$GPROT,-000.0,A*1C
$SNATT,-000.22,000.04,000.00,-000.00,D*30
$GPGLL,3910.8988,N,11708.5787,E,171022.86,A,A*68
$GPVTG,218.8,T,218.8,M,000.0,N,000.0,K,A*23
$GPZDA,171022.86,14,08,2019,00,00*68
$GPHDT,116.5,T*36
$GPROT,-000.0,A*1C
$SNATT,-000.22,000.04,000.00,-000.00,D*30
$GPGLL,3910.8988,N,11708.5787,E,171022.88,A,A*66
$GPVTG,218.8,T,218.8,M,000.0,N,000.0,K,A*23
$GPZDA,171022.88,14,08,2019,00,00*66
$GPHDT,116.5,T*36
$GPROT,-000.0,A*1C
$SNATT,-000.22,000.04,000.00,-000.00,D*30
$GPGLL,3910.8988,N,11708.5787,E,171022.90,A,A*6F
$GPVTG,218.8,T,218.8,M,000.0,N,000.0,K,A*23
$GPZDA,171022.90,14,08,2019,00,00*6F
$GPHDT,116.5,T*36
$GPROT,-000.0,A*1C
$SNATT,-000.22,000.04,000.00,-000.00,D*30
$GPGLL,3910.8988,N,11708.5787,E,171022.92,A,A*6D
$GPVTG,218.8,T,218.8,M,000.0,N,000.0,K,A*23
$GPZDA,171022.92,14,08,2019,00,00*6D
$GPHDT,116.5,T*36
$GPROT,-000.0,A*1C
$SNATT,-000.22,000.04,000.00,-000.00,D*30
$GPGLL,3910.8988,N,11708.5787,E,171022.94,A,A*6B
$GPVTG,218.8,T,218.8,M,000.0,N,000.0,K,A*23
$GPZDA,171022.94,14,08,2019,00,00*6B
$GPHDT,116.5,T*36
$GPROT,-000.0,A*1C
$SNATT,-000.22,000.04,-000.00,-000.00,D*1D
$GPGLL,3910.8988,N,11708.5787,E,171022.96,A,A*69
$GPVTG,218.8,T,218.8,M,000.0,N,000.0,K,A*23
$GPZDA,171022.96,14,08,2019,00,00*69
$GPHDT,116.5,T*36
$GPROT,-000.0,A*1C
$SNATT,-000.22,000.04,-000.00,-000.00,D*1D
$GPGLL,3910.8988,N,11708.5787,E,171022.98,A,A*67
$GPVTG,218.8,T,218.8,M,000.0,N,000.0,K,A*23
$GPZDA,171022.98,14,08,2019,00,00*67
$GPHDT,116.5,T*36
$GPROT,-000.0,A*1C
$SNATT,-000.22,000.04,-000.00,-000.00,D*1D
$GPGLL,3910.8988,N,11708.5787,E,171023.00,A,A*67
$GPVTG,218.8,T,218.8,M,000.0,N,000.0,K,A*23
$GPZDA,171023.00,14,08,2019,00,00*67
$GPHDT,116.5,T*36
$GPROT,-000.0,A*1C
$SNATT,-000.22,000.04,-000.00,000.00,D*30
$GPGLL,3910.8988,N,11708.5787,E,171023.02,A,A*65
$GPVTG,218.8,T,218.8,M,000.0,N,000.0,K,A*23
$GPZDA,171023.02,14,08,2019,00,00*65
$GPHDT,116.5,T*36
$GPROT,-000.0,A*1C
$SNATT,-000.22,000.04,-000.00,000.00,D*30
$GPGLL,3910.8988,N,11708.5787,E,171023.04,A,A*63
$GPVTG,218.8,T,218.8,M,000.0,N,000.0,K,A*23
$GPZDA,171023.04,14,08,2019,00,00*63
$GPHDT,116.5,T*36
$GPROT,-000.0,A*1C
$SNATT,-000.22,000.04,-000.00,000.00,D*30
$GPGLL,3910.8988,N,11708.5787,E,171023.06,A,A*61
$GPVTG,119.8,T,119.8,M,000.0,N,000.0,K,A*23
$GPZDA,171023.06,14,08,2019,00,00*61
$GPHDT,116.5,T*36
$GPROT,-000.0,A*1C
$SNATT,-000.22,000.04,-000.00,000.00,D*30
$GPGLL,3910.8988,N,11708.5787,E,171023.08,A,A*6F
$GPVTG,119.8,T,119.8,M,000.0,N,000.0,K,A*23
$GPZDA,171023.08,14,08,2019,00,00*6F
$GPHDT,116.5,T*36
$GPROT,-000.0,A*1C
$SNATT,-000.22,000.04,-000.00,-000.00,D*1D
$GPGLL,3910.8988,N,11708.5787,E,171023.10,A,A*66
$GPVTG,119.8,T,119.8,M,000.0,N,000.0,K,A*23
$GPZDA,171023.10,14,08,2019,00,00*66
$GPHDT,116.5,T*36
$GPROT,-000.0,A*1C
$SNATT,-000.22,000.04,-000.00,-000.00,D*1D
$GPGLL,3910.8988,N,11708.5787,E,171023.12,A,A*64
$GPVTG,119.8,T,119.8,M,000.0,N,000.0,K,A*23
$GPZDA,171023.12,14,08,2019,00,00*64
$GPHDT,116.5,T*36
$GPROT,-000.0,A*1C
$SNATT,-000.22,000.04,-000.00,-000.00,D*1D
$GPGLL,3910.8988,N,11708.5787,E,171023.14,A,A*62
$GPVTG,119.8,T,119.8,M,000.0,N,000.0,K,A*23
$GPZDA,171023.14,14,08,2019,00,00*62
$GPHDT,116.5,T*36
$GPROT,-000.0,A*1C
$SNATT,-000.22,000.04,-000.00,-000.00,D*1D
$GPGLL,3910.8988,N,11708.5787,E,171023.16,A,A*60
$GPVTG,119.8,T,119.8,M,000.0,N,000.0,K,A*23
$GPZDA,171023.16,14,08,2019,00,00*60
$GPHDT,116.5,T*36
$GPROT,-000.0,A*1C
$SNATT,-000.22,000.04,-000.00,-000.00,D*1D
$GPGLL,3910.8988,N,11708.5787,E,171023.18,A,A*6E
$GPVTG,119.8,T,119.8,M,000.0,N,000.0,K,A*23
$GPZDA,171023.18,14,08,2019,00,00*6E
$GPHDT,116.5,T*36
$GPROT,-000.0,A*1C
$SNATT,-000.22,000.04,-000.00,-000.00,D*1D
$GPGLL,3910.8988,N,11708.5787,E,171023.20,A,A*65
$GPVTG,119.8,T,119.8,M,000.0,N,000.0,K,A*23
$GPZDA,171023.20,14,08,2019,00,00*65
$GPHDT,116.5,T*36
$GPROT,-000.0,A*1C
$SNATT,-000.22,000.04,-000.00,-000.00,D*1D
$GPGLL,3910.8988,N,11708.5787,E,171023.22,A,A*67
$GPVTG,119.8,T,119.8,M,000.0,N,000.0,K,A*23
$GPZDA,171023.22,14,08,2019,00,00*67
$GPHDT,116.5,T*36
$GPROT,-000.0,A*1C
$SNATT,-000.22,000.04,-000.00,-000.00,D*1D
$GPGLL,3910.8988,N,11708.5787,E,171023.24,A,A*61
$GPVTG,119.8,T,119.8,M,000.0,N,000.0,K,A*23
$GPZDA,171023.24,14,08,2019,00,00*61
$GPHDT,116.5,T*36
$GPROT,-000.0,A*1C
$SNATT,-000.22,000.04,-000.00,-000.00,D*1D
$GPGLL,3910.8988,N,11708.5787,E,171023.26,A,A*63
$GPVTG,119.8,T,119.8,M,000.0,N,000.0,K,A*23
$GPZDA,171023.26,14,08,2019,00,00*63
$GPHDT,116.5,T*36
$GPROT,-000.0,A*1C
$SNATT,-000.22,000.04,-000.00,-000.00,D*1D
$GPGLL,3910.8988,N,11708.5787,E,171023.28,A,A*6D
$GPVTG,119.8,T,119.8,M,000.0,N,000.0,K,A*23
$GPZDA,171023.28,14,08,2019,00,00*6D
$GPHDT,116.5,T*36
$GPROT,-000.0,A*1C
$SNATT,-000.22,000.04,-000.00,-000.00,D*1D
$GPGLL,3910.8988,N,11708.5787,E,171023.30,A,A*64
$GPVTG,119.8,T,119.8,M,000.0,N,000.0,K,A*23
$GPZDA,171023.30,14,08,2019,00,00*64
$GPHDT,116.5,T*36
$GPROT,-000.0,A*1C
$SNATT,-000.22,000.04,-000.00,-000.00,D*1D
$GPGLL,3910.8988,N,11708.5787,E,171023.32,A,A*66
$GPVTG,119.8,T,119.8,M,000.0,N,000.0,K,A*23
$GPZDA,171023.32,14,08,2019,00,00*66
$GPHDT,116.5,T*36
$GPROT,-000.0,A*1C
$SNATT,-000.22,000.04,-000.00,-000.00,D*1D
$GPGLL,3910.8988,N,11708.5787,E,171023.34,A,A*60
$GPVTG,119.8,T,119.8,M,000.0,N,000.0,K,A*23
$GPZDA,171023.34,14,08,2019,00,00*60
$GPHDT,116.5,T*36
$GPROT,-000.0,A*1C
$SNATT,-000.22,000.04,-000.00,-000.00,D*1D
$GPGLL,3910.8988,N,11708.5787,E,171023.36,A,A*62
$GPVTG,119.8,T,119.8,M,000.0,N,000.0,K,A*23
$GPZDA,171023.36,14,08,2019,00,00*62
$GPHDT,116.5,T*36
$GPROT,-000.0,A*1C
$SNATT,-000.22,000.04,-000.00,-000.00,D*1D
$GPGLL,3910.8988,N,11708.5787,E,171023.38,A,A*6C
$GPVTG,119.8,T,119.8,M,000.0,N,000.0,K,A*23
$GPZDA,171023.38,14,08,2019,00,00*6C
$GPHDT,116.5,T*36
$GPROT,-000.0,A*1C
$SNATT,-000.22,000.04,-000.00,-000.00,D*1D
$GPGLL,3910.8988,N,11708.5787,E,171023.40,A,A*63
$GPVTG,119.8,T,119.8,M,000.0,N,000.0,K,A*23
$GPZDA,171023.40,14,08,2019,00,00*63
$GPHDT,116.5,T*36
$GPROT,-000.0,A*1C
$SNATT,-000.22,000.04,-000.00,-000.00,D*1D
$GPGLL,3910.8988,N,11708.5787,E,171023.42,A,A*61
$GPVTG,119.8,T,119.8,M,000.0,N,000.0,K,A*23
$GPZDA,171023.42,14,08,2019,00,00*61
$GPHDT,116.5,T*36
$GPROT,-000.0,A*1C
$SNATT,-000.22,000.04,-000.00,-000.00,D*1D
*30
$GPGLL,3910.8988,N,11708.5787,E,171147.24,A,A*62
$GPVTG,188.2,T,188.2,M,000.0,N,000.0,K,A*23
$GPZDA,171147.24,14,08,2019,00,00*62
$GPHDT,116.5,T*36
$GPROT,-000.0,A*1C
$SNATT,-000.22,000.04,000.00,000.00,D*1D
$GPGLL,3910.8988,N,11708.5787,E,171147.26,A,A*60
$GPVTG,188.2,T,188.2,M,000.0,N,000.0,K,A*23
$GPZDA,171147.26,14,08,2019,00,00*60
$GPHDT,116.5,T*36
$GPROT,-000.0,A*1C
$SNATT,-000.22,000.04,000.00,000.00,D*1D
$GPGLL,3910.8988,N,11708.5787,E,171147.28,A,A*6E
$GPVTG,188.2,T,188.2,M,000.0,N,000.0,K,A*23
$GPZDA,171147.28,14,08,2019,00,00*6E
$GPHDT,116.5,T*36
$GPROT,-000.0,A*1C
$SNATT,-000.22,000.04,000.00,000.00,D*1D
$GPGLL,3910.8988,N,11708.5787,E,171147.30,A,A*67
$GPVTG,188.2,T,188.2,M,000.0,N,000.0,K,A*23
$GPZDA,171147.30,14,08,2019,00,00*67
$GPHDT,116.5,T*36
$GPROT,-000.0,A*1C
$SNATT,-000.22,000.04,000.00,000.00,D*1D
$GPGLL,3910.8988,N,11708.5787,E,171147.32,A,A*65
$GPVTG,188.2,T,188.2,M,000.0,N,000.0,K,A*23
$GPZDA,171147.32,14,08,2019,00,00*65
$GPHDT,116.5,T*36
$GPROT,-000.0,A*1C
$SNATT,-000.22,000.04,000.00,000.00,D*1D
$GPGLL,3910.8988,N,11708.5787,E,171147.34,A,A*63
$GPVTG,188.2,T,188.2,M,000.0,N,000.0,K,A*23
$GPZDA,171147.34,14,08,2019,00,00*63
$GPHDT,116.5,T*36
$GPROT,-000.0,A*1C
$SNATT,-000.22,000.04,000.00,000.00,D*1D
$GPGLL,3910.8988,N,11708.5787,E,171147.36,A,A*61
$GPVTG,188.2,T,188.2,M,000.0,N,000.0,K,A*23
$GPZDA,171147.36,14,08,2019,00,00*61
$GPHDT,116.5,T*36
$GPROT,-000.0,A*1C
$SNATT,-000.22,000.04,000.00,000.00,D*1D
$GPGLL,3910.8988,N,11708.5787,E,171147.38,A,A*6F
$GPVTG,188.2,T,188.2,M,000.0,N,000.0,K,A*23
$GPZDA,171147.38,14,08,2019,00,00*6F
$GPHDT,116.5,T*36
$GPROT,-000.0,A*1C
$SNATT,-000.22,000.04,000.00,000.00,D*1D
$GPGLL,3910.8988,N,11708.5787,E,171147.40,A,A*60
$GPVTG,188.2,T,188.2,M,000.0,N,000.0,K,A*23
$GPZDA,171147.40,14,08,2019,00,00*60
$GPHDT,116.5,T*36
$GPROT,-000.0,A*1C
$SNATT,-000.22,000.04,000.00,000.00,D*1D
$GPGLL,3910.8988,N,11708.5787,E,171147.42,A,A*62
$GPVTG,188.2,T,188.2,M,000.0,N,000.0,K,A*23
$GPZDA,171147.42,14,08,2019,00,00*62
$GPHDT,116.5,T*36
$GPROT,-000.0,A*1C
$SNATT,-000.22,000.04,000.00,000.00,D*1D
$GPGLL,3910.8988,N,11708.5787,E,171147.44,A,A*64
$GPVTG,188.2,T,188.2,M,000.0,N,000.0,K,A*23
$GPZDA,171147.44,14,08,2019,00,00*64
$GPHDT,116.5,T*36
$GPROT,-000.0,A*1C
$SNATT,-000.22,000.04,000.00,000.00,D*1D
$GPGLL,3910.8988,N,11708.5787,E,171147.46,A,A*66
$GPVTG,188.2,T,188.2,M,000.0,N,000.0,K,A*23
$GPZDA,171147.46,14,08,2019,00,00*66
$GPHDT,116.5,T*36
$GPROT,-000.0,A*1C
$SNATT,-000.22,000.04,000.00,000.00,D*1D
$GPGLL,3910.8988,N,11708.5787,E,171147.48,A,A*68
$GPVTG,188.2,T,188.2,M,000.0,N,000.0,K,A*23
$GPZDA,171147.48,14,08,2019,00,00*68
$GPHDT,116.5,T*36
$GPROT,-000.0,A*1C
$SNATT,-000.22,000.04,000.00,000.00,D*1D
$GPGLL,3910.8988,N,11708.5787,E,171147.50,A,A*61
$GPVTG,188.2,T,188.2,M,000.0,N,000.0,K,A*23
$GPZDA,171147.50,14,08,2019,00,00*61
$GPHDT,116.5,T*36
$GPROT,-000.0,A*1C
$SNATT,-000.22,000.04,000.00,000.00,D*1D
$GPGLL,3910.8988,N,11708.5787,E,171147.52,A,A*63
$GPVTG,188.2,T,188.2,M,000.0,N,000.0,K,A*23
$GPZDA,171147.52,14,08,2019,00,00*63
$GPHDT,116.5,T*36
$GPROT,-000.0,A*1C
$SNATT,-000.22,000.04,000.00,000.00,D*1D
$GPGLL,3910.8988,N,11708.5787,E,171147.54,A,A*65
$GPVTG,188.2,T,188.2,M,000.0,N,000.0,K,A*23
$GPZDA,171147.54,14,08,2019,00,00*65
$GPHDT,116.5,T*36
$GPROT,-000.0,A*1C
$SNATT,-000.22,000.04,000.00,000.00,D*1D
$GPGLL,3910.8988,N,11708.5787,E,171147.56,A,A*67
$GPVTG,188.2,T,188.2,M,000.0,N,000.0,K,A*23
$GPZDA,171147.56,14,08,2019,00,00*67
$GPHDT,116.5,T*36
$GPROT,000.0,A*31
$SNATT,-000.22,000.04,000.00,000.00,D*1D
$GPGLL,3910.8988,N,11708.5787,E,171147.58,A,A*69
$GPVTG,188.2,T,188.2,M,000.0,N,000.0,K,A*23
$GPZDA,171147.58,14,08,2019,00,00*69
$GPHDT,116.5,T*36
$GPROT,000.0,A*31
$SNATT,-000.22,000.04,000.00,000.00,D*1D
$GPGLL,3910.8988,N,11708.5787,E,171147.60,A,A*62
$GPVTG,188.2,T,188.2,M,000.0,N,000.0,K,A*23
$GPZDA,171147.60,14,08,2019,00,00*62
$GPHDT,116.5,T*36
$GPROT,000.0,A*31
$SNATT,-000.22,000.04,000.00,000.00,D*1D
$GPGLL,3910.8988,N,11708.5787,E,171147.62,A,A*60
$GPVTG,188.2,T,188.2,M,000.0,N,000.0,K,A*23
$GPZDA,171147.62,14,08,2019,00,00*60
$GPHDT,116.5,T*36
$GPROT,000.0,A*31
$SNATT,-000.22,000.04,000.00,000.00,D*1D
$GPGLL,3910.8988,N,11708.5787,E,171147.64,A,A*66
$GPVTG,188.2,T,188.2,M,000.0,N,000.0,K,A*23
$GPZDA,171147.64,14,08,2019,00,00*66
$GPHDT,116.5,T*36
$GPROT,000.0,A*31
$SNATT,-000.22,000.04,000.00,000.00,D*1D
$GPGLL,3910.8988,N,11708.5787,E,171147.66,A,A*64
$GPVTG,188.2,T,188.2,M,000.0,N,000.0,K,A*23
$GPZDA,171147.66,14,08,2019,00,00*64
$GPHDT,116.5,T*36
$GPROT,000.0,A*31
$SNATT,-000.22,000.04,000.00,000.00,D*1D
$GPGLL,3910.8988,N,11708.5787,E,171147.68,A,A*6A
$GPVTG,188.2,T,188.2,M,000.0,N,000.0,K,A*23
$GPZDA,171147.68,14,08,2019,00,00*6A
$GPHDT,116.5,T*36
$GPROT,000.0,A*31
$SNATT,-000.22,000.04,000.00,000.00,D*1D
$GPGLL,3910.8988,N,11708.5787,E,171147.70,A,A*63
$GPVTG,188.2,T,188.2,M,000.0,N,000.0,K,A*23
$GPZDA,171147.70,14,08,2019,00,00*63
$GPHDT,116.5,T*36
$GPROT,000.0,A*31
$SNATT,-000.22,000.04,000.00,000.00,D*1D
$GPGLL,3910.8988,N,11708.5787,E,171147.72,A,A*61
$GPVTG,188.2,T,188.2,M,000.0,N,000.0,K,A*23
$GPZDA,171147.72,14,08,2019,00,00*61
$GPHDT,116.5,T*36
$GPROT,000.0,A*31
$SNATT,-000.22,000.04,000.00,000.00,D*1D
$GPGLL,3910.8988,N,11708.5787,E,171147.74,A,A*67
$GPVTG,188.2,T,188.2,M,000.0,N,000.0,K,A*23
$GPZDA,171147.74,14,08,2019,00,00*67
$GPHDT,116.5,T*36
$GPROT,000.0,A*31
$SNATT,-000.22,000.04,000.00,-000.00,D*30
$GPGLL,3910.8988,N,11708.5787,E,171147.76,A,A*65
$GPVTG,188.2,T,188.2,M,000.0,N,000.0,K,A*23
$GPZDA,171147.76,14,08,2019,00,00*65
$GPHDT,116.5,T*36
$GPROT,000.0,A*31
$SNATT,-000.22,000.04,000.00,-000.00,D*30
$GPGLL,3910.8988,N,11708.5787,E,171147.78,A,A*6B
$GPVTG,188.2,T,188.2,M,000.0,N,000.0,K,A*23
$GPZDA,171147.78,14,08,2019,00,00*6B
$GPHDT,116.5,T*36
$GPROT,000.0,A*31
$SNATT,-000.22,000.04,000.00,-000.00,D*30
$GPGLL,3910.8988,N,11708.5787,E,171147.80,A,A*6C
$GPVTG,188.2,T,188.2,M,000.0,N,000.0,K,A*23
$GPZDA,171147.80,14,08,2019,00,00*6C
$GPHDT,116.5,T*36
$GPROT,000.0,A*31
$SNATT,-000.22,000.04,000.00,-000.00,D*30
$GPGLL,3910.8988,N,11708.5787,E,171147.82,A,A*6E
$GPVTG,188.2,T,188.2,M,000.0,N,000.0,K,A*23
$GPZDA,171147.82,14,08,2019,00,00*6E
$GPHDT,116.5,T*36
$GPROT,000.0,A*31
$SNATT,-000.22,000.04,000.00,-000.00,D*30
$GPGLL,3910.8988,N,11708.5787,E,171147.84,A,A*68
$GPVTG,188.2,T,188.2,M,000.0,N,000.0,K,A*23
$GPZDA,171147.84,14,08,2019,00,00*68
$GPHDT,116.5,T*36
$GPROT,000.0,A*31
$SNATT,-000.22,000.04,000.00,-000.00,D*30
$GPGLL,3910.8988,N,11708.5787,E,171147.86,A,A*6A
$GPVTG,188.2,T,188.2,M,000.0,N,000.0,K,A*23
$GPZDA,171147.86,14,08,2019,00,00*6A
$GPHDT,116.5,T*36
$GPROT,000.0,A*31
$SNATT,-000.22,000.04,000.00,-000.00,D*30
$GPGLL,3910.8988,N,11708.5787,E,171147.88,A,A*64
$GPVTG,188.2,T,188.2,M,000.0,N,000.0,K,A*23
$GPZDA,171147.88,14,08,2019,00,00*64
$GPHDT,116.5,T*36
$GPROT,000.0,A*31
$SNATT,-000.22,000.04,000.00,-000.00,D*30
$GPGLL,3910.8988,N,11708.5787,E,171147.90,A,A*6D
$GPVTG,188.2,T,188.2,M,000.0,N,000.0,K,A*23
$GPZDA,171147.90,14,08,2019,00,00*6D
$GPHDT,116.5,T*36
$GPROT,000.0,A*31
$SNATT,-000.22,000.04,000.00,-000.00,D*30
$GPGLL,3910.8988,N,11708.5787,E,171147.92,A,A*6F
$GPVTG,188.2,T,188.2,M,000.0,N,000.0,K,A*23
$GPZDA,171147.92,14,08,2019,00,00*6F
$GPHDT,116.5,T*36
$GPROT,000.0,A*31
$SNATT,-000.22,000.04,000.00,-000.00,D*30
$GPGLL,3910.8988,N,11708.5787,E,171147.94,A,A*69
$GPVTG,188.2,T,188.2,M,000.0,N,000.0,K,A*23
$GPZDA,171147.94,14,08,2019,00,00*69
$GPHDT,116.5,T*36
$GPROT,000.0,A*31
$SNATT,-000.22,000.04,000.00,-000.00,D*30
$GPGLL,3910.8988,N,11708.5787,E,171147.96,A,A*6B
$GPVTG,188.2,T,188.2,M,000.0,N,000.0,K,A*23
$GPZDA,171147.96,14,08,2019,00,00*6B
$GPHDT,116.5,T*36
$GPROT,000.0,A*31
$SNATT,-000.22,000.04,000.00,-000.00,D*30
$GPGLL,3910.8988,N,11708.5787,E,171147.98,A,A*65
$GPVTG,188.2,T,188.2,M,000.0,N,000.0,K,A*23
$GPZDA,171147.98,14,08,2019,00,00*65
$GPHDT,116.5,T*36
$GPROT,000.0,A*31
$SNATT,-000.22,000.04,000.00,-000.00,D*30
$GPGLL,3910.8988,N,11708.5787,E,171148.00,A,A*6B
$GPVTG,188.2,T,188.2,M,000.0,N,000.0,K,A*23
$GPZDA,171148.00,14,08,2019,00,00*6B
$GPHDT,116.5,T*36
$GPROT,000.0,A*31
$SNATT,-000.22,000.04,000.00,-000.00,D*30
$GPGLL,3910.8988,N,11708.5787,E,171148.02,A,A*69
$GPVTG,188.2,T,188.2,M,000.0,N,000.0,K,A*23
$GPZDA,171148.02,14,08,2019,00,00*69
$GPHDT,116.5,T*36
$GPROT,000.0,A*31
$SNATT,-000.22,000.04,000.00,-000.00,D*30
$GPGLL,3910.8988,N,11708.5787,E,171148.04,A,A*6F
$GPVTG,188.2,T,188.2,M,000.0,N,000.0,K,A*23
$GPZDA,171148.04,14,08,2019,00,00*6F
$GPHDT,116.5,T*36
$GPROT,000.0,A*31
$SNATT,-000.22,000.04,000.00,-000.00,D*30
$GPGLL,3910.8988,N,11708.5787,E,171148.06,A,A*6D
$GPVTG,328.6,T,328.6,M,000.0,N,000.0,K,A*23
$GPZDA,171148.06,14,08,2019,00,00*6D
$GPHDT,116.5,T*36
$GPROT,000.0,A*31
$SNATT,-000.22,000.04,000.00,-000.00,D*30
$GPGLL,3910.8988,N,11708.5787,E,171148.08,A,A*63
$GPVTG,328.6,T,328.6,M,000.0,N,000.0,K,A*23
$GPZDA,171148.08,14,08,2019,00,00*63
$GPHDT,116.5,T*36
$GPROT,000.0,A*31
$SNATT,-000.22,000.04,000.00,-000.00,D*30
$GPGLL,3910.8988,N,11708.5787,E,171148.10,A,A*6A
$GPVTG,328.6,T,328.6,M,000.0,N,000.0,K,A*23
$GPZDA,171148.10,14,08,2019,00,00*6A
$GPHDT,116.5,T*36
$GPROT,000.0,A*31
$SNATT,-000.22,000.04,000.00,-000.00,D*30
$GPGLL,3910.8988,N,11708.5787,E,171148.12,A,A*68
$GPVTG,328.6,T,328.6,M,000.0,N,000.0,K,A*23
$GPZDA,171148.12,14,08,2019,00,00*68
$GPHDT,116.5,T*36
$GPROT,000.0,A*31
$SNATT,-000.22,000.04,000.00,-000.00,D*30
$GPGLL,3910.8988,N,11708.5787,E,171148.14,A,A*6E
$GPVTG,328.6,T,328.6,M,000.0,N,000.0,K,A*23
$GPZDA,171148.14,14,08,2019,00,00*6E
$GPHDT,116.5,T*36
$GPROT,000.0,A*31
$SNATT,-000.22,000.04,000.00,-000.00,D*30
$GPGLL,3910.8988,N,11708.5787,E,171148.16,A,A*6C
$GPVTG,328.6,T,328.6,M,000.0,N,000.0,K,A*23
$GPZDA,171148.16,14,08,2019,00,00*6C
$GPHDT,116.5,T*36
$GPROT,000.0,A*31
$SNATT,-000.22,000.04,000.00,-000.00,D*30
$GPGLL,3910.8988,N,11708.5787,E,171148.18,A,A*62
$GPVTG,328.6,T,328.6,M,000.0,N,000.0,K,A*23
$GPZDA,171148.18,14,08,2019,00,00*62
$GPHDT,116.5,T*36
$GPROT,000.0,A*31
$SNATT,-000.22,000.04,000.00,-000.00,D*30
$GPGLL,3910.8988,N,11708.5787,E,171148.20,A,A*69
$GPVTG,328.6,T,328.6,M,000.0,N,000.0,K,A*23
$GPZDA,171148.20,14,08,2019,00,00*69
$GPHDT,116.5,T*36
$GPROT,000.0,A*31
$SNATT,-000.22,000.04,000.00,-000.00,D*30
$GPGLL,3910.8988,N,11708.5787,E,171148.22,A,A*6B
$GPVTG,328.6,T,328.6,M,000.0,N,000.0,K,A*23
$GPZDA,171148.22,14,08,2019,00,00*6B
$GPHDT,116.5,T*36
$GPROT,000.0,A*31
$SNATT,-000.22,000.04,000.00,-000.00,D*30
$GPGLL,3910.8988,N,11708.5787,E,171148.24,A,A*6D
$GPVTG,328.6,T,328.6,M,000.0,N,000.0,K,A*23
$GPZDA,171148.24,14,08,2019,00,00*6D
$GPHDT,116.5,T*36
$GPROT,000.0,A*31
$SNATT,-000.22,000.04,000.00,-000.00,D*30
$GPGLL,3910.8988,N,11708.5787,E,171148.26,A,A*6F
$GPVTG,328.6,T,328.6,M,000.0,N,000.0,K,A*23
$GPZDA,171148.26,14,08,2019,00,00*6F
$GPHDT,116.5,T*36
$GPROT,000.0,A*31
$SNATT,-000.22,000.04,000.00,-000.00,D*30
$GPGLL,3910.8988,N,11708.5787,E,171148.28,A,A*61
$GPVTG,328.6,T,328.6,M,000.0,N,000.0,K,A*23
$GPZDA,171148.28,14,08,2019,00,00*61
$GPHDT,116.5,T*36
$GPROT,000.0,A*31
$SNATT,-000.22,000.04,000.00,-000.00,D*30
$GPGLL,3910.8988,N,11708.5787,E,171148.30,A,A*68
$GPVTG,328.6,T,328.6,M,000.0,N,000.0,K,A*23
$GPZDA,171148.30,14,08,2019,00,00*68
$GPHDT,116.5,T*36
$GPROT,000.0,A*31
$SNATT,-000.22,000.04,000.00,-000.00,D*30
$GPGLL,3910.8988,N,11708.5787,E,171148.32,A,A*6A
$GPVTG,328.6,T,328.6,M,000.0,N,000.0,K,A*23
$GPZDA,171148.32,14,08,2019,00,00*6A
$GPHDT,116.5,T*36
$GPROT,000.0,A*31
$SNATT,-000.22,000.04,000.00,-000.00,D*30
$GPGLL,3910.8988,N,11708.5787,E,171148.34,A,A*6C
$GPVTG,328.6,T,328.6,M,000.0,N,000.0,K,A*23
$GPZDA,171148.34,14,08,2019,00,00*6C
$GPHDT,116.5,T*36
$GPROT,000.0,A*31
$SNATT,-000.22,000.04,000.00,-000.00,D*30
$GPGLL,3910.8988,N,11708.5787,E,171148.36,A,A*6E
$GPVTG,328.6,T,328.6,M,000.0,N,000.0,K,A*23
$GPZDA,171148.36,14,08,2019,00,00*6E
$GPHDT,116.5,T*36
$GPROT,000.0,A*31
$SNATT,-000.22,000.04,000.00,-000.00,D*30
$GPGLL,3910.8988,N,11708.5787,E,171148.38,A,A*60
$GPVTG,328.6,T,328.6,M,000.0,N,000.0,K,A*23
$GPZDA,171148.38,14,08,2019,00,00*60
$GPHDT,116.5,T*36
$GPROT,000.0,A*31
$SNATT,-000.22,000.04,000.00,-000.00,D*30
$GPGLL,3910.8988,N,11708.5787,E,171148.40,A,A*6F
$GPVTG,328.6,T,328.6,M,000.0,N,000.0,K,A*23
$GPZDA,171148.40,14,08,2019,00,00*6F
$GPHDT,116.5,T*36
$GPROT,000.0,A*31
$SNATT,-000.22,000.04,000.00,-000.00,D*30
$GPGLL,3910.8988,N,11708.5787,E,171148.42,A,A*6D
$GPVTG,328.6,T,328.6,M,000.0,N,000.0,K,A*23
$GPZDA,171148.42,14,08,2019,00,00*6D
$GPHDT,116.5,T*36
$GPROT,000.0,A*31
$SNATT,-000.22,000.04,000.00,-000.00,D*30
$GPGLL,3910.8988,N,11708.5787,E,171148.44,A,A*6B
$GPVTG,328.6,T,328.6,M,000.0,N,000.0,K,A*23
$GPZDA,171148.44,14,08,2019,00,00*6B
$GPHDT,116.5,T*36
$GPROT,000.0,A*31
$SNATT,-000.22,000.04,000.00,-000.00,D*30
$GPGLL,3910.8988,N,11708.5787,E,171148.46,A,A*69
$GPVTG,328.6,T,328.6,M,000.0,N,000.0,K,A*23
$GPZDA,171148.46,14,08,2019,00,00*69
$GPHDT,116.5,T*36
$GPROT,000.0,A*31
$SNATT,-000.22,000.04,000.00,-000.00,D*30
$GPGLL,3910.8988,N,11708.5787,E,171148.48,A,A*67
$GPVTG,328.6,T,328.6,M,000.0,N,000.0,K,A*23
$GPZDA,171148.48,14,08,2019,00,00*67
$GPHDT,116.5,T*36
$GPROT,000.0,A*31
$SNATT,-000.22,000.04,000.00,-000.00,D*30
$GPGLL,3910.8988,N,11708.5787,E,171148.50,A,A*6E
$GPVTG,328.6,T,328.6,M,000.0,N,000.0,K,A*23
$GPZDA,171148.50,14,08,2019,00,00*6E
$GPHDT,116.5,T*36
$GPROT,000.0,A*31
$SNATT,-000.22,000.04,000.00,-000.00,D*30
$GPGLL,3910.8988,N,11708.5787,E,171148.52,A,A*6C
$GPVTG,328.6,T,328.6,M,000.0,N,000.0,K,A*23
$GPZDA,171148.52,14,08,2019,00,00*6C
$GPHDT,116.5,T*36
$GPROT,000.0,A*31
$SNATT,-000.22,000.04,000.00,-000.00,D*30
$GPGLL,3910.8988,N,11708.5787,E,171148.54,A,A*6A
$GPVTG,328.6,T,328.6,M,000.0,N,000.0,K,A*23
$GPZDA,171148.54,14,08,2019,00,00*6A
$GPHDT,116.5,T*36
$GPROT,000.0,A*31
$SNATT,-000.22,000.04,000.00,-000.00,D*30
$GPGLL,3910.8988,N,11708.5787,E,171148.56,A,A*68
$GPVTG,328.6,T,328.6,M,000.0,N,000.0,K,A*23
$GPZDA,171148.56,14,08,2019,00,00*68
$GPHDT,116.5,T*36
$GPROT,000.0,A*31
$SNATT,-000.22,000.04,000.00,-000.00,D*30
$GPGLL,3910.8988,N,11708.5787,E,171148.58,A,A*66
$GPVTG,328.6,T,328.6,M,000.0,N,000.0,K,A*23
$GPZDA,171148.58,14,08,2019,00,00*66
$GPHDT,116.5,T*36
$GPROT,000.0,A*31
$SNATT,-000.22,000.04,000.00,-000.00,D*30
$GPGLL,3910.8988,N,11708.5787,E,171148.60,A,A*6D
$GPVTG,328.6,T,328.6,M,000.0,N,000.0,K,A*23
$GPZDA,171148.60,14,08,2019,00,00*6D
$GPHDT,116.5,T*36
$GPROT,000.0,A*31
$SNATT,-000.22,000.04,000.00,000.00,D*1D
$GPGLL,3910.8988,N,11708.5787,E,171148.62,A,A*6F
$GPVTG,328.6,T,328.6,M,000.0,N,000.0,K,A*23
$GPZDA,171148.62,14,08,2019,00,00*6F
$GPHDT,116.5,T*36
$GPROT,000.0,A*31
$SNATT,-000.22,000.04,000.00,000.00,D*1D
$GPGLL,3910.8988,N,11708.5787,E,171148.64,A,A*69
$GPVTG,328.6,T,328.6,M,000.0,N,000.0,K,A*23
$GPZDA,171148.64,14,08,2019,00,00*69
$GPHDT,116.5,T*36
$GPROT,000.0,A*31
$SNATT,-000.22,000.04,000.00,000.00,D*1D
$GPGLL,3910.8988,N,11708.5787,E,171148.66,A,A*6B
$GPVTG,328.6,T,328.6,M,000.0,N,000.0,K,A*23
$GPZDA,171148.66,14,08,2019,00,00*6B
$GPHDT,116.5,T*36
$GPROT,000.0,A*31
$SNATT,-000.22,000.04,000.00,000.00,D*1D
$GPGLL,3910.8988,N,11708.5787,E,171148.68,A,A*65
$GPVTG,328.6,T,328.6,M,000.0,N,000.0,K,A*23
$GPZDA,171148.68,14,08,2019,00,00*65
$GPHDT,116.5,T*36
$GPROT,000.0,A*31
$SNATT,-000.22,000.04,-000.00,000.00,D*30
$GPGLL,3910.8988,N,11708.5787,E,171148.70,A,A*6C
$GPVTG,328.6,T,328.6,M,000.0,N,000.0,K,A*23
$GPZDA,171148.70,14,08,2019,00,00*6C
$GPHDT,116.5,T*36
$GPROT,000.0,A*31
$SNATT,-000.22,000.04,-000.00,000.00,D*30
$GPGLL,3910.8988,N,11708.5787,E,171148.72,A,A*6E
$GPVTG,328.6,T,328.6,M,000.0,N,000.0,K,A*23
$GPZDA,171148.72,14,08,2019,00,00*6E
$GPHDT,116.5,T*36
$GPROT,000.0,A*31
$SNATT,-000.22,000.04,-000.00,000.00,D*30
$GPGLL,3910.8988,N,11708.5787,E,171148.74,A,A*68
$GPVTG,328.6,T,328.6,M,000.0,N,000.0,K,A*23
$GPZDA,171148.74,14,08,2019,00,00*68
$GPHDT,116.5,T*36
$GPROT,000.0,A*31
$SNATT,-000.22,000.04,-000.00,000.00,D*30
$GPGLL,3910.8988,N,11708.5787,E,171148.76,A,A*6A
$GPVTG,328.6,T,328.6,M,000.0,N,000.0,K,A*23
$GPZDA,171148.76,14,08,2019,00,00*6A
$GPHDT,116.5,T*36
$GPROT,000.0,A*31
$SNATT,-000.22,000.04,-000.00,000.00,D*30
$GPGLL,3910.8988,N,11708.5787,E,171148.78,A,A*64
$GPVTG,328.6,T,328.6,M,000.0,N,000.0,K,A*23
$GPZDA,171148.78,14,08,2019,00,00*64
$GPHDT,116.5,T*36
$GPROT,000.0,A*31
$SNATT,-000.22,000.04,-000.00,000.00,D*30
$GPGLL,3910.8988,N,11708.5787,E,171148.80,A,A*63
$GPVTG,328.6,T,328.6,M,000.0,N,000.0,K,A*23
$GPZDA,171148.80,14,08,2019,00,00*63
$GPHDT,116.5,T*36
$GPROT,000.0,A*31
$SNATT,-000.22,000.04,-000.00,000.00,D*30
$GPGLL,3910.8988,N,11708.5787,E,171148.82,A,A*61
$GPVTG,328.6,T,328.6,M,000.0,N,000.0,K,A*23
$GPZDA,171148.82,14,08,2019,00,00*61
$GPHDT,116.5,T*36
$GPROT,000.0,A*31
$SNATT,-000.22,000.04,-000.00,000.00,D*30
$GPGLL,3910.8988,N,11708.5787,E,171148.84,A,A*67
$GPVTG,328.6,T,328.6,M,000.0,N,000.0,K,A*23
$GPZDA,171148.84,14,08,2019,00,00*67
$GPHDT,116.5,T*36
$GPROT,000.0,A*31
$SNATT,-000.22,000.04,-000.00,000.00,D*30
$GPGLL,3910.8988,N,11708.5787,E,171148.86,A,A*65
$GPVTG,328.6,T,328.6,M,000.0,N,000.0,K,A*23
$GPZDA,171148.86,14,08,2019,00,00*65
$GPHDT,116.5,T*36
$GPROT,000.0,A*31
$SNATT,-000.22,000.04,-000.00,000.00,D*30
$GPGLL,3910.8988,N,11708.5787,E,171148.88,A,A*6B
$GPVTG,328.6,T,328.6,M,000.0,N,000.0,K,A*23
$GPZDA,171148.88,14,08,2019,00,00*6B
$GPHDT,116.5,T*36
$GPROT,000.0,A*31
$SNATT,-000.22,000.04,-000.00,000.00,D*30
$GPGLL,3910.8988,N,11708.5787,E,171148.90,A,A*62
$GPVTG,328.6,T,328.6,M,000.0,N,000.0,K,A*23
$GPZDA,171148.90,14,08,2019,00,00*62
$GPHDT,116.5,T*36
$GPROT,000.0,A*31
$SNATT,-000.22,000.04,-000.00,000.00,D*30
$GPGLL,3910.8988,N,11708.5787,E,171148.92,A,A*60
$GPVTG,328.6,T,328.6,M,000.0,N,000.0,K,A*23
$GPZDA,171148.92,14,08,2019,00,00*60
$GPHDT,116.5,T*36
$GPROT,000.0,A*31
$SNATT,-000.22,000.04,-000.00,000.00,D*30
$GPGLL,3910.8988,N,11708.5787,E,171148.94,A,A*66
$GPVTG,328.6,T,328.6,M,000.0,N,000.0,K,A*23
$GPZDA,171148.94,14,08,2019,00,00*66
$GPHDT,116.5,T*36
$GPROT,000.0,A*31
$SNATT,-000.22,000.04,-000.00,000.00,D*30
$GPGLL,3910.8988,N,11708.5787,E,171148.96,A,A*64
$GPVTG,328.6,T,328.6,M,000.0,N,000.0,K,A*23
$GPZDA,171148.96,14,08,2019,00,00*64
$GPHDT,116.5,T*36
$GPROT,000.0,A*31
$SNATT,-000.22,000.04,-000.00,000.00,D*30
$GPGLL,3910.8988,N,11708.5787,E,171148.98,A,A*6A
$GPVTG,328.6,T,328.6,M,000.0,N,000.0,K,A*23
$GPZDA,171148.98,14,08,2019,00,00*6A
$GPHDT,116.5,T*36
$GPROT,000.0,A*31
$SNATT,-000.22,000.04,-000.00,000.00,D*30
$GPGLL,3910.8988,N,11708.5787,E,171149.00,A,A*6A
$GPVTG,328.6,T,328.6,M,000.0,N,000.0,K,A*23
$GPZDA,171149.00,14,08,2019,00,00*6A
$GPHDT,116.5,T*36
$GPROT,000.0,A*31
$SNATT,-000.22,000.04,-000.00,000.00,D*30
$GPGLL,3910.8988,N,11708.5787,E,171149.02,A,A*68
$GPVTG,328.6,T,328.6,M,000.0,N,000.0,K,A*23
$GPZDA,171149.02,14,08,2019,00,00*68
$GPHDT,116.5,T*36
$GPROT,000.0,A*31
$SNATT,-000.22,000.04,-000.00,000.00,D*30
$GPGLL,3910.8988,N,11708.5787,E,171149.04,A,A*6E
$GPVTG,328.6,T,328.6,M,000.0,N,000.0,K,A*23
$GPZDA,171149.04,14,08,2019,00,00*6E
$GPHDT,116.5,T*36
$GPROT,000.0,A*31
$SNATT,-000.22,000.04,-000.00,000.00,D*30
$GPGLL,3910.8988,N,11708.5787,E,171149.06,A,A*6C
$GPVTG,209.7,T,209.7,M,000.0,N,000.0,K,A*23
$GPZDA,171149.06,14,08,2019,00,00*6C
$GPHDT,116.5,T*36
$GPROT,000.0,A*31
$SNATT,-000.22,000.04,-000.00,000.00,D*30
$GPGLL,3910.8988,N,11708.5787,E,171149.08,A,A*62
$GPVTG,209.7,T,209.7,M,000.0,N,000.0,K,A*23
$GPZDA,171149.08,14,08,2019,00,00*62
$GPHDT,116.5,T*36
$GPROT,000.0,A*31
$SNATT,-000.22,000.04,-000.00,000.00,D*30
$GPGLL,3910.8988,N,11708.5787,E,171149.10,A,A*6B
$GPVTG,209.7,T,209.7,M,000.0,N,000.0,K,A*23
$GPZDA,171149.10,14,08,2019,00,00*6B
$GPHDT,116.5,T*36
$GPROT,000.0,A*31
$SNATT,-000.22,000.04,-000.00,000.00,D*30
$GPGLL,3910.8988,N,11708.5787,E,171149.12,A,A*69
$GPVTG,209.7,T,209.7,M,000.0,N,000.0,K,A*23
$GPZDA,171149.12,14,08,2019,00,00*69
$GPHDT,116.5,T*36
$GPROT,000.0,A*31
$SNATT,-000.22,000.04,-000.00,000.00,D*30
$GPGLL,3910.8988,N,11708.5787,E,171149.14,A,A*6F
$GPVTG,209.7,T,209.7,M,000.0,N,000.0,K,A*23
$GPZDA,171149.14,14,08,2019,00,00*6F
$GPHDT,116.5,T*36
$GPROT,000.0,A*31
$SNATT,-000.22,000.04,-000.00,000.00,D*30
$GPGLL,3910.8988,N,11708.5787,E,171149.16,A,A*6D
$GPVTG,209.7,T,209.7,M,000.0,N,000.0,K,A*23
$GPZDA,171149.16,14,08,2019,00,00*6D
$GPHDT,116.5,T*36
$GPROT,000.0,A*31
$SNATT,-000.22,000.04,-000.00,000.00,D*30
$GPGLL,3910.8988,N,11708.5787,E,171149.18,A,A*63
$GPVTG,209.7,T,209.7,M,000.0,N,000.0,K,A*23
$GPZDA,171149.18,14,08,2019,00,00*63
$GPHDT,116.5,T*36
$GPROT,000.0,A*31
$SNATT,-000.22,000.04,-000.00,000.00,D*30
$GPGLL,3910.8988,N,11708.5787,E,171149.20,A,A*68
$GPVTG,209.7,T,209.7,M,000.0,N,000.0,K,A*23
$GPZDA,171149.20,14,08,2019,00,00*68
$GPHDT,116.5,T*36
$GPROT,000.0,A*31
$SNATT,-000.22,000.04,-000.00,000.00,D*30
$GPGLL,3910.8988,N,11708.5787,E,171149.22,A,A*6A
$GPVTG,209.7,T,209.7,M,000.0,N,000.0,K,A*23
$GPZDA,171149.22,14,08,2019,00,00*6A
$GPHDT,116.5,T*36
$GPROT,000.0,A*31
$SNATT,-000.22,000.04,-000.00,000.00,D*30
$GPGLL,3910.8988,N,11708.5787,E,171149.24,A,A*6C
$GPVTG,209.7,T,209.7,M,000.0,N,000.0,K,A*23
$GPZDA,171149.24,14,08,2019,00,00*6C
$GPHDT,116.5,T*36
$GPROT,000.0,A*31
$SNATT,-000.22,000.04,-000.00,000.00,D*30
$GPGLL,3910.8988,N,11708.5787,E,171149.26,A,A*6E
$GPVTG,209.7,T,209.7,M,000.0,N,000.0,K,A*23
$GPZDA,171149.26,14,08,2019,00,00*6E
$GPHDT,116.5,T*36
$GPROT,000.0,A*31
$SNATT,-000.22,000.04,-000.00,000.00,D*30
$GPGLL,3910.8988,N,11708.5787,E,171149.28,A,A*60
$GPVTG,209.7,T,209.7,M,000.0,N,000.0,K,A*23
$GPZDA,171149.28,14,08,2019,00,00*60
$GPHDT,116.5,T*36
$GPROT,000.0,A*31
$SNATT,-000.22,000.04,-000.00,000.00,D*30
$GPGLL,3910.8988,N,11708.5787,E,171149.30,A,A*69
